{
"type": "FeatureCollection",
"crs": { "type": "name", "properties": { "name": "urn:ogc:def:crs:OGC:1.3:CRS84" } },
"features": [
{ "type": "Feature", "properties": { "unit_name": "Ajmer", "unit_type": "Nagar Nigam", "gmap_link": "https://www.google.com/maps/place/?q=place_id:ChIJAc23_NjmazkR7gCB6xKPr8s", "town_village_name": "Ajmer" }, "geometry": { "type": "Point", "coordinates": [ 74.6399163, 26.4498954 ] } },
{ "type": "Feature", "properties": { "unit_name": "Beawar", "unit_type": "Nagar Parishad", "gmap_link": "https://www.google.com/maps/place/?q=place_id:ChIJ2zUNB9J3aTkRCt4eZuo3meM", "town_village_name": "Theekrana Mendratan" }, "geometry": { "type": "Point", "coordinates": [ 74.2852282, 26.0963391 ] } },
{ "type": "Feature", "properties": { "unit_name": "Kishangarh", "unit_type": "Nagar Parishad", "gmap_link": "https://www.google.com/maps/place/?q=place_id:ChIJjSby4djwazkRie8WkwaEAtg", "town_village_name": "Kishangarh" }, "geometry": { "type": "Point", "coordinates": [ 74.8541759, 26.5866303 ] } },
{ "type": "Feature", "properties": { "unit_name": "Kekri", "unit_type": "Nagar Palika", "gmap_link": "https://www.google.com/maps/place/?q=place_id:ChIJbbt_33_IbjkRV3dVqkp3Hi4", "town_village_name": "Kekri" }, "geometry": { "type": "Point", "coordinates": [ 75.1529096, 25.9753197 ] } },
{ "type": "Feature", "properties": { "unit_name": "Pushkar", "unit_type": "Nagar Palika", "gmap_link": "https://www.google.com/maps/place/?q=place_id:ChIJZREA9xjdazkReWczsxvAQn8", "town_village_name": "Pushkar" }, "geometry": { "type": "Point", "coordinates": [ 74.5514546, 26.4850718 ] } },
{ "type": "Feature", "properties": { "unit_name": "Sarwar", "unit_type": "Nagar Palika", "gmap_link": "https://www.google.com/maps/place/?q=place_id:ChIJixFbhPxLaTkRpoYF5Vuo1pc", "town_village_name": "Bargaon" }, "geometry": { "type": "Point", "coordinates": [ 74.9289912, 26.0083266 ] } },
{ "type": "Feature", "properties": { "unit_name": "Vijaynagar", "unit_type": "Nagar Palika", "gmap_link": "https://www.google.com/maps/place/?q=place_id:ChIJ9xSAjQU_aTkRxuSo13astyY", "town_village_name": "Baral" }, "geometry": { "type": "Point", "coordinates": [ 74.6506322, 25.9267581 ] } },
{ "type": "Feature", "properties": { "unit_name": "Bhilwara", "unit_type": "Nagar Parishad", "gmap_link": "https://www.google.com/maps/place/?q=place_id:ChIJPx0ATkrCaDkRl9iJro4UpJk", "town_village_name": "Mahuwa Kalan" }, "geometry": { "type": "Point", "coordinates": [ 74.7805192, 25.4283062 ] } },
{ "type": "Feature", "properties": { "unit_name": "Gulabpura", "unit_type": "Nagar Palika", "gmap_link": "https://www.google.com/maps/place/?q=place_id:ChIJaxmH6Os-aTkRVqySa53zesM", "town_village_name": "Gulabpura" }, "geometry": { "type": "Point", "coordinates": [ 74.6605365, 25.9031773 ] } },
{ "type": "Feature", "properties": { "unit_name": "Gangapur", "unit_type": "Nagar Palika", "gmap_link": "https://www.google.com/maps/place/?q=place_id:ChIJH9S9aBz1aDkRIuXLmrptgaY", "town_village_name": "Gangapur" }, "geometry": { "type": "Point", "coordinates": [ 74.2604818, 25.2181785 ] } },
{ "type": "Feature", "properties": { "unit_name": "Jahazpur", "unit_type": "Nagar Palika", "gmap_link": "https://www.google.com/maps/place/?q=place_id:ChIJYSUi4-EgbzkRBcINbaFS6Z4", "town_village_name": "Jahazpur" }, "geometry": { "type": "Point", "coordinates": [ 75.2770721, 25.6244351 ] } },
{ "type": "Feature", "properties": { "unit_name": "Mandalgarh", "unit_type": "Nagar Palika", "gmap_link": "https://www.google.com/maps/place/?q=place_id:ChIJlypj4k9JbzkR6jjFRIDl4ec", "town_village_name": "Mandalgarh" }, "geometry": { "type": "Point", "coordinates": [ 75.0932352, 25.1977566 ] } },
{ "type": "Feature", "properties": { "unit_name": "Aasind", "unit_type": "Nagar Palika", "gmap_link": "https://www.google.com/maps/place/?q=place_id:ChIJjxdVAvIFaTkRXQxj4bQspdU", "town_village_name": "Asind" }, "geometry": { "type": "Point", "coordinates": [ 74.3346656, 25.7327669 ] } },
{ "type": "Feature", "properties": { "unit_name": "Nagaur", "unit_type": "Nagar Parishad", "gmap_link": "https://www.google.com/maps/place/?q=place_id:ChIJU6a3rXCRajkRbqrNKXH0QGk", "town_village_name": "Nagaur" }, "geometry": { "type": "Point", "coordinates": [ 73.7493272, 27.1983368 ] } },
{ "type": "Feature", "properties": { "unit_name": "Makrana", "unit_type": "Nagar Parishad", "gmap_link": "https://www.google.com/maps/place/?q=place_id:ChIJpYED-KudazkRaXb9AUhXrlQ", "town_village_name": "Makrana" }, "geometry": { "type": "Point", "coordinates": [ 74.714621, 27.0285581 ] } },
{ "type": "Feature", "properties": { "unit_name": "Mertacity", "unit_type": "Nagar Palika", "gmap_link": "https://www.google.com/maps/place/?q=place_id:ChIJfxQ6WQhIajkR4C7F91iNnOM", "town_village_name": "Merta City" }, "geometry": { "type": "Point", "coordinates": [ 74.0309418, 26.644952 ] } },
{ "type": "Feature", "properties": { "unit_name": "Didwana", "unit_type": "Nagar Palika", "gmap_link": "https://www.google.com/maps/place/?q=place_id:ChIJj_wcgDwVazkRnUNjHhY_jGU", "town_village_name": "Didwana" }, "geometry": { "type": "Point", "coordinates": [ 74.5756196, 27.4024277 ] } },
{ "type": "Feature", "properties": { "unit_name": "Kuchaman City", "unit_type": "Nagar Palika", "gmap_link": "https://www.google.com/maps/place/?q=place_id:ChIJtzQfUJV5azkRYW7ViwcyiAg", "town_village_name": "Kuchaman City" }, "geometry": { "type": "Point", "coordinates": [ 74.8565613, 27.1470339 ] } },
{ "type": "Feature", "properties": { "unit_name": "Parbatsar", "unit_type": "Nagar Palika", "gmap_link": "https://www.google.com/maps/place/?q=place_id:ChIJwQfgbRGQazkR79FF3wsjLO8", "town_village_name": "Parbatsar" }, "geometry": { "type": "Point", "coordinates": [ 74.7644289, 26.8856982 ] } },
{ "type": "Feature", "properties": { "unit_name": "Kuchera", "unit_type": "Nagar Palika", "gmap_link": "https://www.google.com/maps/place/?q=place_id:ChIJEeMVXJpYajkRb3Boqq_rdbM", "town_village_name": "Kuchera" }, "geometry": { "type": "Point", "coordinates": [ 73.9712488, 26.9839089 ] } },
{ "type": "Feature", "properties": { "unit_name": "Nawa", "unit_type": "Nagar Palika", "gmap_link": "https://www.google.com/maps/place/?q=place_id:ChIJa5PPA814bDkRlEXD_5YXZXo", "town_village_name": "Nawa" }, "geometry": { "type": "Point", "coordinates": [ 75.0072278, 27.026151 ] } },
{ "type": "Feature", "properties": { "unit_name": "Mundwa", "unit_type": "Nagar Palika", "gmap_link": "https://www.google.com/maps/place/?q=place_id:ChIJiUYnVEOLajkRQubugdaSyak", "town_village_name": "Mundwa" }, "geometry": { "type": "Point", "coordinates": [ 73.8228498, 27.0632727 ] } },
{ "type": "Feature", "properties": { "unit_name": "Degana", "unit_type": "Nagar Palika", "gmap_link": "https://www.google.com/maps/place/?q=place_id:ChIJYdhgOmSuazkRESIvksD9mdA", "town_village_name": "Jhagarwas" }, "geometry": { "type": "Point", "coordinates": [ 74.3176876, 26.89183 ] } },
{ "type": "Feature", "properties": { "unit_name": "Tonk", "unit_type": "Nagar Parishad", "gmap_link": "https://www.google.com/maps/place/?q=place_id:ChIJvYvtdUNhbjkRyZnHmtNVHP8", "town_village_name": "Tonk" }, "geometry": { "type": "Point", "coordinates": [ 75.7962852, 26.1659063 ] } },
{ "type": "Feature", "properties": { "unit_name": "Deoli", "unit_type": "Nagar Palika", "gmap_link": "https://www.google.com/maps/place/?q=place_id:ChIJ_T6iGNHgbjkRfQemUrNds1c", "town_village_name": "Deoli" }, "geometry": { "type": "Point", "coordinates": [ 75.3818157, 25.7582176 ] } },
{ "type": "Feature", "properties": { "unit_name": "Niwai", "unit_type": "Nagar Palika", "gmap_link": "https://www.google.com/maps/place/?q=place_id:ChIJH4zCNrFwbjkRkPhc-FmQyYg", "town_village_name": "Niwai" }, "geometry": { "type": "Point", "coordinates": [ 75.9289046, 26.3609304 ] } },
{ "type": "Feature", "properties": { "unit_name": "Malpura", "unit_type": "Nagar Palika", "gmap_link": "https://www.google.com/maps/place/?q=place_id:ChIJq8wSsIyYbjkRM45mWDsyLgo", "town_village_name": "Malpura" }, "geometry": { "type": "Point", "coordinates": [ 75.369661400000012, 26.3005677 ] } },
{ "type": "Feature", "properties": { "unit_name": "Todaraisingh", "unit_type": "Nagar Palika", "gmap_link": "https://www.google.com/maps/place/?q=place_id:ChIJOcFlav3sbjkR-RAb9NlfjWM", "town_village_name": "Todaraisingh" }, "geometry": { "type": "Point", "coordinates": [ 75.4838259, 26.0245037 ] } },
{ "type": "Feature", "properties": { "unit_name": "Uniara", "unit_type": "Nagar Palika", "gmap_link": "https://www.google.com/maps/place/?q=place_id:ChIJASiQKpFIbjkRp898nF1RUGg", "town_village_name": "Uniara" }, "geometry": { "type": "Point", "coordinates": [ 76.0267477, 25.9156067 ] } },
{ "type": "Feature", "properties": { "unit_name": "Shahpura (Bhilwara)", "unit_type": "Nagar Palika", "gmap_link": "https://www.google.com/maps/place/?q=place_id:ChIJ3dd3bHfVaDkRdEupz2M52eo", "town_village_name": "Shahpura" }, "geometry": { "type": "Point", "coordinates": [ 74.9291984, 25.6230703 ] } },
{ "type": "Feature", "properties": { "unit_name": "Ladnu", "unit_type": "Nagar Palika", "gmap_link": "https://www.google.com/maps/place/?q=place_id:ChIJF6nqGC4uazkRPNdzpvtnsrM", "town_village_name": "Ladnu" }, "geometry": { "type": "Point", "coordinates": [ 74.3880699, 27.6442908 ] } },
{ "type": "Feature", "properties": { "unit_name": "Bharatpur", "unit_type": "Nagar Nigam", "gmap_link": "https://www.google.com/maps/place/?q=place_id:ChIJb3NahAqjczkRCM7ukzUQD1o", "town_village_name": "Bharatpur" }, "geometry": { "type": "Point", "coordinates": [ 77.5029996, 27.2151863 ] } },
{ "type": "Feature", "properties": { "unit_name": "Bayana", "unit_type": "Nagar Palika", "gmap_link": "https://www.google.com/maps/place/?q=place_id:ChIJ3fopYGHJczkRj2h9EerUnik", "town_village_name": "Bayana" }, "geometry": { "type": "Point", "coordinates": [ 77.2893606, 26.9158088 ] } },
{ "type": "Feature", "properties": { "unit_name": "Deeg", "unit_type": "Nagar Palika", "gmap_link": "https://www.google.com/maps/place/?q=place_id:ChIJw2CEBjgEczkR8aK-CZOqPhs", "town_village_name": "Deeg" }, "geometry": { "type": "Point", "coordinates": [ 77.3249713, 27.4723994 ] } },
{ "type": "Feature", "properties": { "unit_name": "Kanma", "unit_type": "Nagar Palika", "gmap_link": "https://www.google.com/maps/place/?q=place_id:ChIJi_S9fNseczkRirYeZsWlXVU", "town_village_name": "Kaman" }, "geometry": { "type": "Point", "coordinates": [ 77.2690022, 27.6567614 ] } },
{ "type": "Feature", "properties": { "unit_name": "L Nadbai", "unit_type": "Nagar Palika", "gmap_link": "https://www.google.com/maps/place/?q=place_id:ChIJY69fvLSsczkRotlbxn75glQ", "town_village_name": "Nadbai" }, "geometry": { "type": "Point", "coordinates": [ 77.2031493, 27.2144024 ] } },
{ "type": "Feature", "properties": { "unit_name": "Weir", "unit_type": "Nagar Palika", "gmap_link": "https://www.google.com/maps/place/?q=place_id:ChIJaX8B9BdLcjkR9C3_NxJ9P7Q", "town_village_name": "Weir" }, "geometry": { "type": "Point", "coordinates": [ 77.1772737, 27.0125772 ] } },
{ "type": "Feature", "properties": { "unit_name": "Kumher", "unit_type": "Nagar Palika", "gmap_link": "https://www.google.com/maps/place/?q=place_id:ChIJAXOuCHmpczkRzDdSgEMyzJw", "town_village_name": "Astavan Kadim" }, "geometry": { "type": "Point", "coordinates": [ 77.2947615, 27.2913713 ] } },
{ "type": "Feature", "properties": { "unit_name": "Bhusawar", "unit_type": "Nagar Palika", "gmap_link": "https://www.google.com/maps/place/?q=place_id:ChIJ3TPspNNIcjkRVt6TQqC6Gdk", "town_village_name": "Bhusawar" }, "geometry": { "type": "Point", "coordinates": [ 77.0506896, 27.035548 ] } },
{ "type": "Feature", "properties": { "unit_name": "Nagar", "unit_type": "Nagar Palika", "gmap_link": "https://www.google.com/maps/place/?q=place_id:ChIJEfr49KWjczkR69NjRvM2-rs", "town_village_name": "Bharatpur" }, "geometry": { "type": "Point", "coordinates": [ 77.5043645, 27.2286924 ] } },
{ "type": "Feature", "properties": { "unit_name": "Bari", "unit_type": "Nagar Palika", "gmap_link": "https://www.google.com/maps/place/?q=place_id:ChIJNyHqpMnhczkRwnTSwcEh8ZE", "town_village_name": "Bari" }, "geometry": { "type": "Point", "coordinates": [ 77.6153017, 26.6467899 ] } },
{ "type": "Feature", "properties": { "unit_name": "Rajakheda", "unit_type": "Nagar Palika", "gmap_link": "https://www.google.com/maps/place/?q=place_id:ChIJP8UhFOUQdDkR5MV1VJsQhlM", "town_village_name": "Rajakhera" }, "geometry": { "type": "Point", "coordinates": [ 78.1706939, 26.8946488 ] } },
{ "type": "Feature", "properties": { "unit_name": "Karauli", "unit_type": "Nagar Parishad", "gmap_link": "https://www.google.com/maps/place/?q=place_id:ChIJT5xjihGGcTkRIcQKplejCzo", "town_village_name": "Karauli" }, "geometry": { "type": "Point", "coordinates": [ 77.0161436, 26.488323 ] } },
{ "type": "Feature", "properties": { "unit_name": "Hindauncity", "unit_type": "Nagar Parishad", "gmap_link": "https://www.google.com/maps/place/?q=place_id:ChIJqX6mEJYvcjkRoDroNXD_pXs", "town_village_name": "Hindaun" }, "geometry": { "type": "Point", "coordinates": [ 77.0296837, 26.7341201 ] } },
{ "type": "Feature", "properties": { "unit_name": "Todabhima", "unit_type": "Nagar Palika", "gmap_link": "https://www.google.com/maps/place/?q=place_id:ChIJu6HkpVoVcjkRPE1AYCw4cSQ", "town_village_name": "Todabhim" }, "geometry": { "type": "Point", "coordinates": [ 76.8158718, 26.9166942 ] } },
{ "type": "Feature", "properties": { "unit_name": "Sawaimadhopur", "unit_type": "Nagar Parishad", "gmap_link": "https://www.google.com/maps/place/?q=place_id:ChIJh8eTzz4kbjkRnT5df6jBSJE", "town_village_name": "Sawai Madhopur" }, "geometry": { "type": "Point", "coordinates": [ 76.3560109, 26.012373 ] } },
{ "type": "Feature", "properties": { "unit_name": "Gangapurcity", "unit_type": "Nagar Parishad", "gmap_link": "https://www.google.com/maps/place/?q=place_id:ChIJK2vEmqP2cTkRaNWD0p1i_GU", "town_village_name": "Gangapur City" }, "geometry": { "type": "Point", "coordinates": [ 76.7340094, 26.4833211 ] } },
{ "type": "Feature", "properties": { "unit_name": "Dhaulpur", "unit_type": "Nagar Parishad", "gmap_link": "https://www.google.com/maps/place/?q=place_id:ChIJy2TCClP-czkRtrN67l0Gy3Q", "town_village_name": "Dhaulpur" }, "geometry": { "type": "Point", "coordinates": [ 77.8907576, 26.6965521 ] } },
{ "type": "Feature", "properties": { "unit_name": "Udaipur", "unit_type": "Nagar Nigam", "gmap_link": "https://www.google.com/maps/place/?q=place_id:ChIJ9zU0V-XkZzkRpw0x--wb93Q", "town_village_name": "Udaipur" }, "geometry": { "type": "Point", "coordinates": [ 73.6801092, 24.63666 ] } },
{ "type": "Feature", "properties": { "unit_name": "Fatehnagar", "unit_type": "Nagar Palika", "gmap_link": "https://www.google.com/maps/place/?q=place_id:ChIJIbsjapp4aDkRSh1P9kmMU-k", "town_village_name": "Changeri" }, "geometry": { "type": "Point", "coordinates": [ 74.0946311, 24.8062194 ] } },
{ "type": "Feature", "properties": { "unit_name": "Salumber", "unit_type": "Nagar Palika", "gmap_link": "https://www.google.com/maps/place/?q=place_id:ChIJ-9qAGLuoZzkR30EoP29MbLI", "town_village_name": "Salumbar" }, "geometry": { "type": "Point", "coordinates": [ 74.0388252, 24.1386533 ] } },
{ "type": "Feature", "properties": { "unit_name": "Bhinder", "unit_type": "Nagar Palika", "gmap_link": "https://www.google.com/maps/place/?q=place_id:ChIJL0uyOBHLZzkRQcyl698QOgM", "town_village_name": "Bhinder" }, "geometry": { "type": "Point", "coordinates": [ 74.1850289, 24.500894 ] } },
{ "type": "Feature", "properties": { "unit_name": "Kanod", "unit_type": "Nagar Palika", "gmap_link": "https://www.google.com/maps/place/?q=place_id:ChIJBURbI4hKZjkRjwe7AP4QHrQ", "town_village_name": "Kanor" }, "geometry": { "type": "Point", "coordinates": [ 74.2646553, 24.4372793 ] } },
{ "type": "Feature", "properties": { "unit_name": "Banswara", "unit_type": "Nagar Parishad", "gmap_link": "https://www.google.com/maps/place/?q=place_id:ChIJxy4kpmHFZjkRFQsl6ovLl_4", "town_village_name": "Banswara  (Rural)" }, "geometry": { "type": "Point", "coordinates": [ 74.4349761, 23.5461394 ] } },
{ "type": "Feature", "properties": { "unit_name": "Nimbahera", "unit_type": "Nagar Palika", "gmap_link": "https://www.google.com/maps/place/?q=place_id:ChIJGQItadQPZjkRcTfNR1qPguI", "town_village_name": "Nimbahera" }, "geometry": { "type": "Point", "coordinates": [ 74.6810274, 24.6256587 ] } },
{ "type": "Feature", "properties": { "unit_name": "Badi Sadri", "unit_type": "Nagar Palika", "gmap_link": "https://www.google.com/maps/place/?q=place_id:ChIJUSx-NOZGZjkRSeEyrgfKi8U", "town_village_name": "Bari Sadri" }, "geometry": { "type": "Point", "coordinates": [ 74.4735495, 24.4129645 ] } },
{ "type": "Feature", "properties": { "unit_name": "Kapasan", "unit_type": "Nagar Palika", "gmap_link": "https://www.google.com/maps/place/?q=place_id:ChIJs7J04NaDaDkRZUBzO1U98g4", "town_village_name": "Kapasan" }, "geometry": { "type": "Point", "coordinates": [ 74.3176876, 24.8764763 ] } },
{ "type": "Feature", "properties": { "unit_name": "Begun", "unit_type": "Nagar Palika", "gmap_link": "https://www.google.com/maps/place/?q=place_id:ChIJa0xPhpxUbzkRc-3L3Anmkxo", "town_village_name": "Begun" }, "geometry": { "type": "Point", "coordinates": [ 75.0114612, 24.9867932 ] } },
{ "type": "Feature", "properties": { "unit_name": "Rawatbhata", "unit_type": "Nagar Palika", "gmap_link": "https://www.google.com/maps/place/?q=place_id:ChIJT490fxaHZTkRgspEjVWjNbY", "town_village_name": "Rawatbhata" }, "geometry": { "type": "Point", "coordinates": [ 75.5909259, 24.9305954 ] } },
{ "type": "Feature", "properties": { "unit_name": "Dungarpur", "unit_type": "Nagar Parishad", "gmap_link": "https://www.google.com/maps/place/?q=place_id:ChIJWchBUyduZzkR65yBHnlYN1I", "town_village_name": "Dungarpur" }, "geometry": { "type": "Point", "coordinates": [ 73.7146623, 23.841668 ] } },
{ "type": "Feature", "properties": { "unit_name": "Sagwara", "unit_type": "Nagar Palika", "gmap_link": "https://www.google.com/maps/place/?q=place_id:ChIJb4pkyE09ZzkReAgJDjYr8EI", "town_village_name": "Sagwara" }, "geometry": { "type": "Point", "coordinates": [ 74.0241367, 23.665708 ] } },
{ "type": "Feature", "properties": { "unit_name": "Rajasamand", "unit_type": "Nagar Parishad", "gmap_link": "https://www.google.com/maps/place/?q=place_id:ChIJ9Wyum4NraDkRW8WzeuKItxI", "town_village_name": "Rajsamand" }, "geometry": { "type": "Point", "coordinates": [ 73.8860034, 25.0583257 ] } },
{ "type": "Feature", "properties": { "unit_name": "Aamet", "unit_type": "Nagar Palika", "gmap_link": "https://www.google.com/maps/place/?q=place_id:ChIJ41uZ63FGaDkRmtkR-MlpKC4", "town_village_name": "Amet" }, "geometry": { "type": "Point", "coordinates": [ 73.9212858, 25.3033997 ] } },
{ "type": "Feature", "properties": { "unit_name": "Nathdwara", "unit_type": "Nagar Palika", "gmap_link": "https://www.google.com/maps/place/?q=place_id:ChIJRfyMZDgNaDkRFNPbouG7Jys", "town_village_name": "Nathdwara" }, "geometry": { "type": "Point", "coordinates": [ 73.8193405, 24.9311558 ] } },
{ "type": "Feature", "properties": { "unit_name": "Deogarh", "unit_type": "Nagar Palika", "gmap_link": "https://www.google.com/maps/place/?q=place_id:ChIJmZXrY8m0aTkROW4FbCDyWhY", "town_village_name": "Deogarh" }, "geometry": { "type": "Point", "coordinates": [ 73.907786, 25.5286009 ] } },
{ "type": "Feature", "properties": { "unit_name": "Pratapgarh", "unit_type": "Nagar Parishad", "gmap_link": "https://www.google.com/maps/place/?q=place_id:ChIJizuPbPiFZjkRvWJVIOqJz5U", "town_village_name": "Pratapgarh" }, "geometry": { "type": "Point", "coordinates": [ 74.7787387, 24.0316509 ] } },
{ "type": "Feature", "properties": { "unit_name": "Choti Sadri", "unit_type": "Nagar Palika", "gmap_link": "https://www.google.com/maps/place/?q=place_id:ChIJ746hGrduZjkRhLDSMI-V6r8", "town_village_name": "Chhoti Sadri" }, "geometry": { "type": "Point", "coordinates": [ 74.7014809, 24.3818928 ] } },
{ "type": "Feature", "properties": { "unit_name": "Chittorgrh", "unit_type": "Nagar Parishad", "gmap_link": "https://www.google.com/maps/place/?q=place_id:ChIJ2agRTUKgaDkRjV80aciX8Hk", "town_village_name": "Chittaurgarh" }, "geometry": { "type": "Point", "coordinates": [ 74.6229699, 24.8829177 ] } },
{ "type": "Feature", "properties": { "unit_name": "Kshulgarh", "unit_type": "Nagar Palika", "gmap_link": "https://www.google.com/maps/place/?q=place_id:ChIJRaQ9DF8wYTkRH51CRALviKI", "town_village_name": "Kushalgarh" }, "geometry": { "type": "Point", "coordinates": [ 74.4467007, 23.1995056 ] } },
{ "type": "Feature", "properties": { "unit_name": "Heritage Jaipur", "unit_type": "Nagar Nigam", "gmap_link": "https://www.google.com/maps/place/?q=place_id:ChIJ6e9mUJEQbTkRQVCVYEHQsNY", "town_village_name": "Jaswant Pura" }, "geometry": { "type": "Point", "coordinates": [ 75.9172904, 27.4550773 ] } },
{ "type": "Feature", "properties": { "unit_name": "Greater Jaipur", "unit_type": "Nagar Nigam", "gmap_link": "https://www.google.com/maps/place/?q=place_id:ChIJ6e9mUJEQbTkRQVCVYEHQsNY", "town_village_name": "Jaswant Pura" }, "geometry": { "type": "Point", "coordinates": [ 75.9172904, 27.4550773 ] } },
{ "type": "Feature", "properties": { "unit_name": "Chomu", "unit_type": "Nagar Palika", "gmap_link": "https://www.google.com/maps/place/?q=place_id:ChIJF2lNsraqbTkRUzWKqu8gIs8", "town_village_name": "Chomu" }, "geometry": { "type": "Point", "coordinates": [ 75.7158062, 27.1655759 ] } },
{ "type": "Feature", "properties": { "unit_name": "Sambhar", "unit_type": "Nagar Palika", "gmap_link": "https://www.google.com/maps/place/?q=place_id:ChIJsQzwS6R3bDkRpnPowiIg2Zc", "town_village_name": "Sarthala" }, "geometry": { "type": "Point", "coordinates": [ 75.0296356, 26.8875881 ] } },
{ "type": "Feature", "properties": { "unit_name": "Chaksu", "unit_type": "Nagar Palika", "gmap_link": "https://www.google.com/maps/place/?q=place_id:ChIJ9XdbWq3bbTkRXitq2SyYAV4", "town_village_name": "Chaksu" }, "geometry": { "type": "Point", "coordinates": [ 75.9435991, 26.6034639 ] } },
{ "type": "Feature", "properties": { "unit_name": "Kothputali", "unit_type": "Nagar Palika", "gmap_link": "https://www.google.com/maps/place/?q=place_id:ChIJjxOPcAtEbTkRuVT5XJ2x90I", "town_village_name": "Kotputli" }, "geometry": { "type": "Point", "coordinates": [ 76.1942048, 27.7054216 ] } },
{ "type": "Feature", "properties": { "unit_name": "Jobner", "unit_type": "Nagar Palika", "gmap_link": "https://www.google.com/maps/place/?q=place_id:ChIJh701E2ldbDkRlXFrgGsPs8g", "town_village_name": "Jorpura Jobner" }, "geometry": { "type": "Point", "coordinates": [ 75.3587075, 26.9942889 ] } },
{ "type": "Feature", "properties": { "unit_name": "Phulera", "unit_type": "Nagar Palika", "gmap_link": "https://www.google.com/maps/place/?q=place_id:ChIJ_y9nzq9ubDkRhcL-sDq-sIA", "town_village_name": "Phulera" }, "geometry": { "type": "Point", "coordinates": [ 75.2454159, 26.8767313 ] } },
{ "type": "Feature", "properties": { "unit_name": "Viratnagar", "unit_type": "Nagar Palika", "gmap_link": "https://www.google.com/maps/place/?q=place_id:ChIJ-_hD2nZubTkRaQeP8H0jzMc", "town_village_name": "Viratnagar" }, "geometry": { "type": "Point", "coordinates": [ 76.1899661, 27.4309982 ] } },
{ "type": "Feature", "properties": { "unit_name": "Shahpura (Jaipur)", "unit_type": "Nagar Palika", "gmap_link": "https://www.google.com/maps/place/?q=place_id:ChIJD7HzMiUObTkR9vz0dDw_kwE", "town_village_name": "Shahpura" }, "geometry": { "type": "Point", "coordinates": [ 75.9611437, 27.3842893 ] } },
{ "type": "Feature", "properties": { "unit_name": "Kishangarh Renwal", "unit_type": "Nagar Palika", "gmap_link": "https://www.google.com/maps/place/?q=place_id:ChIJ0V_OKfUFbTkRsC8Fp9R-Tv0", "town_village_name": "Vishan Garh" }, "geometry": { "type": "Point", "coordinates": [ 75.9027714, 27.3184198 ] } },
{ "type": "Feature", "properties": { "unit_name": "Bagru", "unit_type": "Nagar Palika", "gmap_link": "https://www.google.com/maps/place/?q=place_id:ChIJ05GArBBKbDkRrZ0t4C6yUNw", "town_village_name": "Bhambhoriya" }, "geometry": { "type": "Point", "coordinates": [ 75.6309922, 26.8226459 ] } },
{ "type": "Feature", "properties": { "unit_name": "Alwar", "unit_type": "Nagar Parishad", "gmap_link": "https://www.google.com/maps/place/?q=place_id:ChIJ813mp4-ZcjkR8ibknqO7zjg", "town_village_name": "Alwar" }, "geometry": { "type": "Point", "coordinates": [ 76.6345735, 27.5529907 ] } },
{ "type": "Feature", "properties": { "unit_name": "Bhiwadi", "unit_type": "Nagar Parishad", "gmap_link": "https://www.google.com/maps/place/?q=place_id:ChIJlRUTueE3DTkRRvBmkaSnnpw", "town_village_name": "Bhiwadi" }, "geometry": { "type": "Point", "coordinates": [ 76.8277675, 28.198793 ] } },
{ "type": "Feature", "properties": { "unit_name": "Kherthal", "unit_type": "Nagar Palika", "gmap_link": "https://www.google.com/maps/place/?q=place_id:ChIJbZxhxTKlcjkRSw7fjtjtjeU", "town_village_name": "Khairthal" }, "geometry": { "type": "Point", "coordinates": [ 76.6441591, 27.8011636 ] } },
{ "type": "Feature", "properties": { "unit_name": "Kherli", "unit_type": "Nagar Palika", "gmap_link": "https://www.google.com/maps/place/?q=place_id:ChIJj2uQoOtQcjkRN8Mw5kOg03s", "town_village_name": "Kherli" }, "geometry": { "type": "Point", "coordinates": [ 77.037736, 27.200467 ] } },
{ "type": "Feature", "properties": { "unit_name": "Rajagarh", "unit_type": "Nagar Palika", "gmap_link": "https://www.google.com/maps/place/?q=place_id:ChIJuzhBPB2hEzkR1TGS6L7cQ9c", "town_village_name": "Rajgarh" }, "geometry": { "type": "Point", "coordinates": [ 75.3894055, 28.6370936 ] } },
{ "type": "Feature", "properties": { "unit_name": "Tijara", "unit_type": "Nagar Palika", "gmap_link": "https://www.google.com/maps/place/?q=place_id:ChIJGWzW8zCFFDkRR-gnAGwuovs", "town_village_name": "Peetheesar" }, "geometry": { "type": "Point", "coordinates": [ 74.8126951, 28.3807597 ] } },
{ "type": "Feature", "properties": { "unit_name": "Behror", "unit_type": "Nagar Palika", "gmap_link": "https://www.google.com/maps/place/?q=place_id:ChIJ6Uh6EHFVbTkR3tjmlSpQMdU", "town_village_name": "Behror Jat" }, "geometry": { "type": "Point", "coordinates": [ 76.4389549, 27.9676683 ] } },
{ "type": "Feature", "properties": { "unit_name": "Kishangarhbas", "unit_type": "Nagar Palika", "gmap_link": "https://www.google.com/maps/place/?q=place_id:ChIJeWJw7yG6cjkRkFknn_0Oybo", "town_village_name": "Kishangarh" }, "geometry": { "type": "Point", "coordinates": [ 76.7293233, 27.8166702 ] } },
{ "type": "Feature", "properties": { "unit_name": "Dausa", "unit_type": "Nagar Parishad", "gmap_link": "https://www.google.com/maps/place/?q=place_id:ChIJ7XL5KcaMbTkRUsaeTf_QE_s", "town_village_name": "Namolao" }, "geometry": { "type": "Point", "coordinates": [ 76.332411, 26.8996953 ] } },
{ "type": "Feature", "properties": { "unit_name": "Bandikui", "unit_type": "Nagar Palika", "gmap_link": "https://www.google.com/maps/place/?q=place_id:ChIJDanC3SdxcjkRa2WF1QMt2kA", "town_village_name": "Bandikui" }, "geometry": { "type": "Point", "coordinates": [ 76.5701145, 27.0479959 ] } },
{ "type": "Feature", "properties": { "unit_name": "Lalsot", "unit_type": "Nagar Palika", "gmap_link": "https://www.google.com/maps/place/?q=place_id:ChIJWz1szZoHbjkRWb3J44BWxsU", "town_village_name": "Kirari" }, "geometry": { "type": "Point", "coordinates": [ 76.2922919, 26.4833172 ] } },
{ "type": "Feature", "properties": { "unit_name": "Jhunjhunu", "unit_type": "Nagar Parishad", "gmap_link": "https://www.google.com/maps/place/?q=place_id:ChIJb2_w6fUwEzkRXuB1q7MfEyo", "town_village_name": "Dorasar" }, "geometry": { "type": "Point", "coordinates": [ 75.4796717, 28.052724 ] } },
{ "type": "Feature", "properties": { "unit_name": "Navalgarh", "unit_type": "Nagar Palika", "gmap_link": "https://www.google.com/maps/place/?q=place_id:ChIJSZiRWpO0bDkR3mBGX0uiE_I", "town_village_name": "Nawalgarh" }, "geometry": { "type": "Point", "coordinates": [ 75.2546476, 27.8454214 ] } },
{ "type": "Feature", "properties": { "unit_name": "Chirawa", "unit_type": "Nagar Palika", "gmap_link": "https://www.google.com/maps/place/?q=place_id:ChIJH7b76Z8hEzkRORVtmgOCxz0", "town_village_name": "Chirawa" }, "geometry": { "type": "Point", "coordinates": [ 75.6499025, 28.2415999 ] } },
{ "type": "Feature", "properties": { "unit_name": "Bissau", "unit_type": "Nagar Palika", "gmap_link": "https://www.google.com/maps/place/?q=place_id:ChIJY81MLTlnEzkRKxZok74bSxU", "town_village_name": "Bissau" }, "geometry": { "type": "Point", "coordinates": [ 75.0757157, 28.2448188 ] } },
{ "type": "Feature", "properties": { "unit_name": "Baggar", "unit_type": "Nagar Palika", "gmap_link": "https://www.google.com/maps/place/?q=place_id:ChIJ9QdqnZA8EzkR_1fWa9szrBY", "town_village_name": "Ashok Nagar" }, "geometry": { "type": "Point", "coordinates": [ 75.4985521, 28.179614 ] } },
{ "type": "Feature", "properties": { "unit_name": "Khetri", "unit_type": "Nagar Palika", "gmap_link": "https://www.google.com/maps/place/?q=place_id:ChIJo7BDptjQEjkRcZd0N9tMIQ8", "town_village_name": "Gothra" }, "geometry": { "type": "Point", "coordinates": [ 75.8228899, 28.0723841 ] } },
{ "type": "Feature", "properties": { "unit_name": "Mandawa", "unit_type": "Nagar Palika", "gmap_link": "https://www.google.com/maps/place/?q=place_id:ChIJEWYA3LFaEzkRIFCCOSa-zjo", "town_village_name": "Mandawa" }, "geometry": { "type": "Point", "coordinates": [ 75.1487007, 28.050017 ] } },
{ "type": "Feature", "properties": { "unit_name": "Mukundgarh", "unit_type": "Nagar Palika", "gmap_link": "https://www.google.com/maps/place/?q=place_id:ChIJI9joHhZMEzkRQH875yQ4LRs", "town_village_name": "Mukandgarh" }, "geometry": { "type": "Point", "coordinates": [ 75.2187346, 27.9547254 ] } },
{ "type": "Feature", "properties": { "unit_name": "Surajgarh", "unit_type": "Nagar Palika", "gmap_link": "https://www.google.com/maps/place/?q=place_id:ChIJqxNJPxTgEjkRiDm6uCtrC-I", "town_village_name": "Surajgarh" }, "geometry": { "type": "Point", "coordinates": [ 75.7313342, 28.3074747 ] } },
{ "type": "Feature", "properties": { "unit_name": "Pilani", "unit_type": "Nagar Palika", "gmap_link": "https://www.google.com/maps/place/?q=place_id:ChIJRZQ8AlRdEzkRBINvbamfRNg", "town_village_name": "Pilani Khurd" }, "geometry": { "type": "Point", "coordinates": [ 75.1487007, 28.2214898 ] } },
{ "type": "Feature", "properties": { "unit_name": "Udaipurvati", "unit_type": "Nagar Palika", "gmap_link": "https://www.google.com/maps/place/?q=place_id:ChIJZcAo9XLPbDkRbm0d0VZviYI", "town_village_name": "Udaipurwati" }, "geometry": { "type": "Point", "coordinates": [ 75.4752537, 27.7303717 ] } },
{ "type": "Feature", "properties": { "unit_name": "Vidhya Vihar", "unit_type": "Nagar Palika", "gmap_link": "https://www.google.com/maps/place/?q=place_id:ChIJeZ938NYbEzkRhmRgR25f-jo", "town_village_name": "Vidyavihar" }, "geometry": { "type": "Point", "coordinates": [ 75.5829782, 28.3688234 ] } },
{ "type": "Feature", "properties": { "unit_name": "Sikar", "unit_type": "Nagar Parishad", "gmap_link": "https://www.google.com/maps/place/?q=place_id:ChIJARsywQ2lbDkRZFbu5qi2Dxk", "town_village_name": "Sikar" }, "geometry": { "type": "Point", "coordinates": [ 75.1341064, 27.6333737 ] } },
{ "type": "Feature", "properties": { "unit_name": "Fatehpur", "unit_type": "Nagar Palika", "gmap_link": "https://www.google.com/maps/place/?q=place_id:ChIJHzAlkSSoFDkRtHr5tRkBloM", "town_village_name": "Fatehpur" }, "geometry": { "type": "Point", "coordinates": [ 74.9618826, 27.9941409 ] } },
{ "type": "Feature", "properties": { "unit_name": "Laxmangarh", "unit_type": "Nagar Palika", "gmap_link": "https://www.google.com/maps/place/?q=place_id:ChIJh7OT-hGrbDkRfoVp6UfX5_k", "town_village_name": "Lachhmangarh" }, "geometry": { "type": "Point", "coordinates": [ 75.0268822, 27.8214683 ] } },
{ "type": "Feature", "properties": { "unit_name": "Shrimadhopur", "unit_type": "Nagar Palika", "gmap_link": "https://www.google.com/maps/place/?q=place_id:ChIJHf0_0pfmbDkRNc5oHPH0Ayc", "town_village_name": "Sri Madhopur" }, "geometry": { "type": "Point", "coordinates": [ 75.5960745, 27.4605087 ] } },
{ "type": "Feature", "properties": { "unit_name": "Khandela", "unit_type": "Nagar Palika", "gmap_link": "https://www.google.com/maps/place/?q=place_id:ChIJqf0mTWrDbDkRmdgICoIWn1s", "town_village_name": "Khandela" }, "geometry": { "type": "Point", "coordinates": [ 75.5014641, 27.604095 ] } },
{ "type": "Feature", "properties": { "unit_name": "Neem Ka Thana", "unit_type": "Nagar Palika", "gmap_link": "https://www.google.com/maps/place/?q=place_id:ChIJO_JWeyImbTkR7lG42txXU6g", "town_village_name": "Neem-Ka-Thana" }, "geometry": { "type": "Point", "coordinates": [ 75.777846, 27.7393659 ] } },
{ "type": "Feature", "properties": { "unit_name": "Ringus", "unit_type": "Nagar Palika", "gmap_link": "https://www.google.com/maps/place/?q=place_id:ChIJWwJ4OyzlbDkR_pQaOXlITkg", "town_village_name": "Reengus" }, "geometry": { "type": "Point", "coordinates": [ 75.5579722, 27.3766238 ] } },
{ "type": "Feature", "properties": { "unit_name": "Losal", "unit_type": "Nagar Palika", "gmap_link": "https://www.google.com/maps/place/?q=place_id:ChIJ-95Wo1FhazkR-Qr2fyPm6-Q", "town_village_name": "Losal Chhoti" }, "geometry": { "type": "Point", "coordinates": [ 74.8821445, 27.3828939 ] } },
{ "type": "Feature", "properties": { "unit_name": "Kota", "unit_type": "Nagar Nigam", "gmap_link": "https://www.google.com/maps/place/?q=place_id:ChIJVcSPTS-FbzkRmMe59SmQeYc", "town_village_name": "Kota" }, "geometry": { "type": "Point", "coordinates": [ 75.8592511, 25.156255 ] } },
{ "type": "Feature", "properties": { "unit_name": "Ramganjmandi", "unit_type": "Nagar Palika", "gmap_link": "https://www.google.com/maps/place/?q=place_id:ChIJuZlnmRxtZTkR-aL_nt2LxUY", "town_village_name": "Ramganj Mandi" }, "geometry": { "type": "Point", "coordinates": [ 75.9431181, 24.6469464 ] } },
{ "type": "Feature", "properties": { "unit_name": "Kaithoon", "unit_type": "Nagar Palika", "gmap_link": "https://www.google.com/maps/place/?q=place_id:ChIJx4Rr0IyObzkR8z6lhQ-ooqE", "town_village_name": "Kaithoon" }, "geometry": { "type": "Point", "coordinates": [ 75.9724491, 25.1227718 ] } },
{ "type": "Feature", "properties": { "unit_name": "Sangod", "unit_type": "Nagar Palika", "gmap_link": "https://www.google.com/maps/place/?q=place_id:ChIJjQCya7JQZTkRiV1LOn20mbs", "town_village_name": "Sangod" }, "geometry": { "type": "Point", "coordinates": [ 76.2855634, 24.9258647 ] } },
{ "type": "Feature", "properties": { "unit_name": "Itawa", "unit_type": "Nagar Palika", "gmap_link": "https://www.google.com/maps/place/?q=place_id:ChIJKxzjXnbZbzkR45F2xPBTiX8", "town_village_name": "Itawa" }, "geometry": { "type": "Point", "coordinates": [ 76.3781984, 25.5386604 ] } },
{ "type": "Feature", "properties": { "unit_name": "Baran", "unit_type": "Nagar Parishad", "gmap_link": "https://www.google.com/maps/place/?q=place_id:ChIJMVU-BgQBcDkRbeDQxBWNv_A", "town_village_name": "Baran" }, "geometry": { "type": "Point", "coordinates": [ 76.5098017, 25.0992643 ] } },
{ "type": "Feature", "properties": { "unit_name": "Anta", "unit_type": "Nagar Palika", "gmap_link": "https://www.google.com/maps/place/?q=place_id:ChIJebCaWEP6bzkRSaEwY3yQzG0", "town_village_name": "Antah" }, "geometry": { "type": "Point", "coordinates": [ 76.2982457, 25.1609313 ] } },
{ "type": "Feature", "properties": { "unit_name": "Chhabra", "unit_type": "Nagar Palika", "gmap_link": "https://www.google.com/maps/place/?q=place_id:ChIJU6Rb2IzqejkR0ECYaogFh4c", "town_village_name": "Chhabra" }, "geometry": { "type": "Point", "coordinates": [ 76.8452019, 24.6668257 ] } },
{ "type": "Feature", "properties": { "unit_name": "Lakheri", "unit_type": "Nagar Palika", "gmap_link": "https://www.google.com/maps/place/?q=place_id:ChIJxyVWngHMbzkR0ApNvthy0h4", "town_village_name": "Lakheri" }, "geometry": { "type": "Point", "coordinates": [ 76.181272, 25.6649505 ] } },
{ "type": "Feature", "properties": { "unit_name": "Mangrol", "unit_type": "Nagar Palika", "gmap_link": "https://www.google.com/maps/place/?q=place_id:ChIJDRxuTbTMbzkREd8-88JeNQY", "town_village_name": "Mohanpura" }, "geometry": { "type": "Point", "coordinates": [ 76.1957618, 25.7504046 ] } },
{ "type": "Feature", "properties": { "unit_name": "K.Patan", "unit_type": "Nagar Palika", "gmap_link": "https://www.google.com/maps/place/?q=place_id:ChIJScSqHxyXbzkRk4ns2HrDeMs", "town_village_name": "Keshoraipatan" }, "geometry": { "type": "Point", "coordinates": [ 75.9405178, 25.2966734 ] } },
{ "type": "Feature", "properties": { "unit_name": "Bundi", "unit_type": "Nagar Parishad", "gmap_link": "https://www.google.com/maps/place/?q=place_id:ChIJhW2SdUEJbzkR9Re2aXtGlR4", "town_village_name": "Bundi" }, "geometry": { "type": "Point", "coordinates": [ 75.6482726, 25.4325869 ] } },
{ "type": "Feature", "properties": { "unit_name": "Nainvaa", "unit_type": "Nagar Palika", "gmap_link": "https://www.google.com/maps/place/?q=place_id:ChIJE1tuf1VSbjkR0eMACW3rzCY", "town_village_name": "Nainwa" }, "geometry": { "type": "Point", "coordinates": [ 75.8563004, 25.7723768 ] } },
{ "type": "Feature", "properties": { "unit_name": "Kapren", "unit_type": "Nagar Palika", "gmap_link": "https://www.google.com/maps/place/?q=place_id:ChIJhdsCBpC_bzkRnxXDO0hQDb8", "town_village_name": "Kaprain" }, "geometry": { "type": "Point", "coordinates": [ 76.072770800000015, 25.4053256 ] } },
{ "type": "Feature", "properties": { "unit_name": "Indragarh", "unit_type": "Nagar Palika", "gmap_link": "https://www.google.com/maps/place/?q=place_id:ChIJl3M5iBzNbzkRQ4sMtHWZyUQ", "town_village_name": "Sumerganj Mandi" }, "geometry": { "type": "Point", "coordinates": [ 76.2319793, 25.729243 ] } },
{ "type": "Feature", "properties": { "unit_name": "Bhawanimandi", "unit_type": "Nagar Palika", "gmap_link": "https://www.google.com/maps/place/?q=place_id:ChIJE51OWYsFZTkRY3hutLjdCTQ", "town_village_name": "Bhawani Mandi" }, "geometry": { "type": "Point", "coordinates": [ 75.8214371, 24.4054876 ] } },
{ "type": "Feature", "properties": { "unit_name": "Jhalarapatan", "unit_type": "Nagar Palika", "gmap_link": "https://www.google.com/maps/place/?q=place_id:ChIJIxPvDqo-ZTkRDVQa2gPWric", "town_village_name": "Jhalrapatan" }, "geometry": { "type": "Point", "coordinates": [ 76.1725774, 24.5402639 ] } },
{ "type": "Feature", "properties": { "unit_name": "Pidava", "unit_type": "Nagar Palika", "gmap_link": "https://www.google.com/maps/place/?q=place_id:ChIJAaKCZ87mZDkRHo9d5guj6T0", "town_village_name": "Pirawa" }, "geometry": { "type": "Point", "coordinates": [ 76.0355051, 24.1628251 ] } },
{ "type": "Feature", "properties": { "unit_name": "Aklera", "unit_type": "Nagar Palika", "gmap_link": "https://www.google.com/maps/place/?q=place_id:ChIJY0AP1EDRejkR0pLW3b6Sq68", "town_village_name": "Aklera" }, "geometry": { "type": "Point", "coordinates": [ 76.5690519, 24.4164292 ] } },
{ "type": "Feature", "properties": { "unit_name": "Jhalawar", "unit_type": "Nagar Parishad", "gmap_link": "https://www.google.com/maps/place/?q=place_id:ChIJB6_PU94-ZTkRHkK6i_A6JjE", "town_village_name": "Jhalawar" }, "geometry": { "type": "Point", "coordinates": [ 76.1609838, 24.5973494 ] } },
{ "type": "Feature", "properties": { "unit_name": "Jodhpur North", "unit_type": "Nagar Nigam", "gmap_link": "https://www.google.com/maps/place/?q=place_id:ChIJM7Vj1x2NQTkR9VfIxrd58YI", "town_village_name": "Jodhpur" }, "geometry": { "type": "Point", "coordinates": [ 73.0635298, 26.2835687 ] } },
{ "type": "Feature", "properties": { "unit_name": "Jodhpur South", "unit_type": "Nagar Nigam", "gmap_link": "https://www.google.com/maps/place/?q=place_id:ChIJM7Vj1x2NQTkR9VfIxrd58YI", "town_village_name": "Jodhpur" }, "geometry": { "type": "Point", "coordinates": [ 73.0635298, 26.2835687 ] } },
{ "type": "Feature", "properties": { "unit_name": "Falaudi", "unit_type": "Nagar Palika", "gmap_link": "https://www.google.com/maps/place/?q=place_id:ChIJ9Rzr-ObqQDkRgsoNH7SYtw0", "town_village_name": "Phalodi" }, "geometry": { "type": "Point", "coordinates": [ 72.3589284, 27.1312346 ] } },
{ "type": "Feature", "properties": { "unit_name": "Piparcity", "unit_type": "Nagar Palika", "gmap_link": "https://www.google.com/maps/place/?q=place_id:ChIJUQljo2cIajkRsxEgjhNz01Q", "town_village_name": "Pipar City" }, "geometry": { "type": "Point", "coordinates": [ 73.529964, 26.3879908 ] } },
{ "type": "Feature", "properties": { "unit_name": "Bilara", "unit_type": "Nagar Palika", "gmap_link": "https://www.google.com/maps/place/?q=place_id:ChIJSficqv72aTkRGayyWzI-2gg", "town_village_name": "Bilara" }, "geometry": { "type": "Point", "coordinates": [ 73.7057166, 26.1803099 ] } },
{ "type": "Feature", "properties": { "unit_name": "Barmer", "unit_type": "Nagar Parishad", "gmap_link": "https://www.google.com/maps/place/?q=place_id:ChIJv7xv5qE6RDkRaZiq6HlHbYQ", "town_village_name": "Barmer" }, "geometry": { "type": "Point", "coordinates": [ 71.3966865, 25.7521467 ] } },
{ "type": "Feature", "properties": { "unit_name": "Balotra", "unit_type": "Nagar Palika", "gmap_link": "https://www.google.com/maps/place/?q=place_id:ChIJUWvoPNHoQzkR3QkxXMw6HcQ", "town_village_name": "Balotra" }, "geometry": { "type": "Point", "coordinates": [ 72.2455699, 25.8302463 ] } },
{ "type": "Feature", "properties": { "unit_name": "Jaisalmer", "unit_type": "Nagar Parishad", "gmap_link": "https://www.google.com/maps/place/?q=place_id:ChIJazkbqii8RzkR427WYNab7_U", "town_village_name": "Jaisalmer" }, "geometry": { "type": "Point", "coordinates": [ 70.9083443, 26.9157487 ] } },
{ "type": "Feature", "properties": { "unit_name": "Pokaran", "unit_type": "Nagar Palika", "gmap_link": "https://www.google.com/maps/place/?q=place_id:ChIJ3c9m2SXaRjkRXXAMD7nVLng", "town_village_name": "Mobtasar" }, "geometry": { "type": "Point", "coordinates": [ 71.726659, 26.6137836 ] } },
{ "type": "Feature", "properties": { "unit_name": "Bhinmal", "unit_type": "Nagar Nigam", "gmap_link": "https://www.google.com/maps/place/?q=place_id:ChIJXTXj91NqQzkRb6R2PSTgg3M", "town_village_name": "Bhinmal" }, "geometry": { "type": "Point", "coordinates": [ 72.2793093, 25.000832 ] } },
{ "type": "Feature", "properties": { "unit_name": "Sanchore", "unit_type": "Nagar Palika", "gmap_link": "https://www.google.com/maps/place/?q=place_id:ChIJrSmauiilRDkRdEvnqJMUfTs", "town_village_name": "Sanchore" }, "geometry": { "type": "Point", "coordinates": [ 71.7762183, 24.7517368 ] } },
{ "type": "Feature", "properties": { "unit_name": "Jalore", "unit_type": "Nagar Parishad", "gmap_link": "https://www.google.com/maps/place/?q=place_id:ChIJQZDpnLYAQzkRYeihZssLNYQ", "town_village_name": "Jalor" }, "geometry": { "type": "Point", "coordinates": [ 72.6253763, 25.3444799 ] } },
{ "type": "Feature", "properties": { "unit_name": "Sumerpur", "unit_type": "Nagar Palika", "gmap_link": "https://www.google.com/maps/place/?q=place_id:ChIJPztwObXsQjkRbn__9-AGri0", "town_village_name": "Sumerpur" }, "geometry": { "type": "Point", "coordinates": [ 73.0822804, 25.1526446 ] } },
{ "type": "Feature", "properties": { "unit_name": "Sojat City", "unit_type": "Nagar Palika", "gmap_link": "https://www.google.com/maps/place/?q=place_id:ChIJubUhkZnoaTkRlsQ-h1-psiE", "town_village_name": "Sojat" }, "geometry": { "type": "Point", "coordinates": [ 73.6669099, 25.9246872 ] } },
{ "type": "Feature", "properties": { "unit_name": "Jaitaran", "unit_type": "Nagar Palika", "gmap_link": "https://www.google.com/maps/place/?q=place_id:ChIJQUemcH6JaTkRHiaER1ctwfs", "town_village_name": "Jaitaran" }, "geometry": { "type": "Point", "coordinates": [ 73.9301037, 26.2048387 ] } },
{ "type": "Feature", "properties": { "unit_name": "Bali", "unit_type": "Nagar Palika", "gmap_link": "https://www.google.com/maps/place/?q=place_id:ChIJ0V9-H22aQjkR8hKQPQbb8YM", "town_village_name": "Bali" }, "geometry": { "type": "Point", "coordinates": [ 73.2853816, 25.1909176 ] } },
{ "type": "Feature", "properties": { "unit_name": "Takhatgarh", "unit_type": "Nagar Palika", "gmap_link": "https://www.google.com/maps/place/?q=place_id:ChIJhYISogf0QjkRQUiyeQj9TE0", "town_village_name": "Takhatgarh" }, "geometry": { "type": "Point", "coordinates": [ 73.005292, 25.3239743 ] } },
{ "type": "Feature", "properties": { "unit_name": "Sadri", "unit_type": "Nagar Palika", "gmap_link": "https://www.google.com/maps/place/?q=place_id:ChIJ_eYH9SqeQjkR8q6R_hRlA2M", "town_village_name": "Sadri" }, "geometry": { "type": "Point", "coordinates": [ 73.4533779, 25.1325611 ] } },
{ "type": "Feature", "properties": { "unit_name": "Khudala Falna St.", "unit_type": "Nagar Palika", "gmap_link": "https://www.google.com/maps/place/?q=place_id:ChIJ3wYQlUCQQjkRwQFcCvCM73I", "town_village_name": "Falna" }, "geometry": { "type": "Point", "coordinates": [ 73.2455741, 25.2366176 ] } },
{ "type": "Feature", "properties": { "unit_name": "Rani", "unit_type": "Nagar Palika", "gmap_link": "https://www.google.com/maps/place/?q=place_id:ChIJn4RxGAmGQjkRzQmmQy1dxbg", "town_village_name": "Rani Kalan" }, "geometry": { "type": "Point", "coordinates": [ 73.2912784, 25.3583365 ] } },
{ "type": "Feature", "properties": { "unit_name": "Aburoad", "unit_type": "Nagar Palika", "gmap_link": "https://www.google.com/maps/place/?q=place_id:ChIJgYeUKpYoXTkRL5_rPg3n6aA", "town_village_name": "Tartoli  (Rural)" }, "geometry": { "type": "Point", "coordinates": [ 72.7717775, 24.4640731 ] } },
{ "type": "Feature", "properties": { "unit_name": "Shivganj", "unit_type": "Nagar Palika", "gmap_link": "https://www.google.com/maps/place/?q=place_id:ChIJD8sXIljrQjkR36eTRtlJwn8", "town_village_name": "Sheoganj" }, "geometry": { "type": "Point", "coordinates": [ 73.0626351, 25.1418179 ] } },
{ "type": "Feature", "properties": { "unit_name": "Pindwara", "unit_type": "Nagar Palika", "gmap_link": "https://www.google.com/maps/place/?q=place_id:ChIJlxNHrYPJQjkRl-JP3zsSMqs", "town_village_name": "Pindwara" }, "geometry": { "type": "Point", "coordinates": [ 73.0515196, 24.7988839 ] } },
{ "type": "Feature", "properties": { "unit_name": "Sirohi", "unit_type": "Nagar Parishad", "gmap_link": "https://www.google.com/maps/place/?q=place_id:ChIJ9bkv9lTaQjkRXrgW1KVEegc", "town_village_name": "Sirohi" }, "geometry": { "type": "Point", "coordinates": [ 72.8574558, 24.8851548 ] } },
{ "type": "Feature", "properties": { "unit_name": "Mount Abu", "unit_type": "Nagar Palika", "gmap_link": "https://www.google.com/maps/place/?q=place_id:ChIJT8JYnHsqXTkRyS53mthI7EE", "town_village_name": "Mount Abu" }, "geometry": { "type": "Point", "coordinates": [ 72.7156274, 24.5925909 ] } },
{ "type": "Feature", "properties": { "unit_name": "Pali", "unit_type": "Nagar Parishad", "gmap_link": "https://www.google.com/maps/place/?q=place_id:ChIJf478NlVyQjkRUJvkBfhYhwA", "town_village_name": "Pali" }, "geometry": { "type": "Point", "coordinates": [ 73.331147, 25.7780623 ] } },
{ "type": "Feature", "properties": { "unit_name": "Bikaner", "unit_type": "Nagar Nigam", "gmap_link": "https://www.google.com/maps/place/?q=place_id:ChIJibsL2XvdPzkRa4FkdhoS40w", "town_village_name": "Bikaner" }, "geometry": { "type": "Point", "coordinates": [ 73.3119159, 28.0229348 ] } },
{ "type": "Feature", "properties": { "unit_name": "Nokha", "unit_type": "Nagar Palika", "gmap_link": "https://www.google.com/maps/place/?q=place_id:ChIJUw0M4eapajkRape1SP-gHOQ", "town_village_name": "Nokha" }, "geometry": { "type": "Point", "coordinates": [ 73.4731871, 27.5562169 ] } },
{ "type": "Feature", "properties": { "unit_name": "Deshnok", "unit_type": "Nagar Palika", "gmap_link": "https://www.google.com/maps/place/?q=place_id:ChIJAdYW0wj7PzkRsOs99w39R5E", "town_village_name": "Deshnoke" }, "geometry": { "type": "Point", "coordinates": [ 73.3443425, 27.7966042 ] } },
{ "type": "Feature", "properties": { "unit_name": "Shridungargarh", "unit_type": "Nagar Palika", "gmap_link": "https://www.google.com/maps/place/?q=place_id:ChIJhTbqCl89FTkRyI1nv7wdQ7s", "town_village_name": "Dungargarh" }, "geometry": { "type": "Point", "coordinates": [ 74.0060083, 28.0943694 ] } },
{ "type": "Feature", "properties": { "unit_name": "Churu", "unit_type": "Nagar Parishad", "gmap_link": "https://www.google.com/maps/place/?q=place_id:ChIJo2aKsQBiEzkRBoNMk_Z7SD4", "town_village_name": "Churu" }, "geometry": { "type": "Point", "coordinates": [ 74.9707262, 28.2925364 ] } },
{ "type": "Feature", "properties": { "unit_name": "Sujangarh", "unit_type": "Nagar Parishad", "gmap_link": "https://www.google.com/maps/place/?q=place_id:ChIJn5e2mgS3FDkRF4ngw5Pw2CM", "town_village_name": "Chak Rajiyasar" }, "geometry": { "type": "Point", "coordinates": [ 74.6301941, 27.8969477 ] } },
{ "type": "Feature", "properties": { "unit_name": "Ratangarh", "unit_type": "Nagar Palika", "gmap_link": "https://www.google.com/maps/place/?q=place_id:ChIJmTTJJGC5FDkRdfBNobFPAYY", "town_village_name": "Loonchh" }, "geometry": { "type": "Point", "coordinates": [ 74.6612967, 28.0320611 ] } },
{ "type": "Feature", "properties": { "unit_name": "Sardarsahar", "unit_type": "Nagar Palika", "gmap_link": "https://www.google.com/maps/place/?q=place_id:ChIJeXdceKb2FDkRC8u6GFC4W60", "town_village_name": "Sardarshahar" }, "geometry": { "type": "Point", "coordinates": [ 74.493705, 28.440419 ] } },
{ "type": "Feature", "properties": { "unit_name": "Rajgarh (Churu)", "unit_type": "Nagar Palika", "gmap_link": "https://www.google.com/maps/place/?q=place_id:ChIJo2aKsQBiEzkRBoNMk_Z7SD4", "town_village_name": "Churu" }, "geometry": { "type": "Point", "coordinates": [ 74.9707262, 28.2925364 ] } },
{ "type": "Feature", "properties": { "unit_name": "Chhpar", "unit_type": "Nagar Palika", "gmap_link": "https://www.google.com/maps/place/?q=place_id:ChIJlQJQig_NFDkRJkvRCJ5rCE4", "town_village_name": "Chhapar" }, "geometry": { "type": "Point", "coordinates": [ 74.4379073, 27.8185932 ] } },
{ "type": "Feature", "properties": { "unit_name": "Bidasar", "unit_type": "Nagar Palika", "gmap_link": "https://www.google.com/maps/place/?q=place_id:ChIJzRkuivTTFDkRaM-xA_kmpWM", "town_village_name": "Bidasar" }, "geometry": { "type": "Point", "coordinates": [ 74.3246078, 27.8413621 ] } },
{ "type": "Feature", "properties": { "unit_name": "Rajaldesar", "unit_type": "Nagar Palika", "gmap_link": "https://www.google.com/maps/place/?q=place_id:ChIJi21y71HEFDkRf17kwxM5_BM", "town_village_name": "Rajaldesar" }, "geometry": { "type": "Point", "coordinates": [ 74.4701475, 28.0306976 ] } },
{ "type": "Feature", "properties": { "unit_name": "Ratannagar", "unit_type": "Nagar Palika", "gmap_link": "https://www.google.com/maps/place/?q=place_id:ChIJCSfD-vCfFDkRzUtOXIuZjqA", "town_village_name": "Ratannagar" }, "geometry": { "type": "Point", "coordinates": [ 74.9530257, 28.2140013 ] } },
{ "type": "Feature", "properties": { "unit_name": "Taranagar", "unit_type": "Nagar Palika", "gmap_link": "https://www.google.com/maps/place/?q=place_id:ChIJczj3-TOBEzkRsrYvh3PSwwk", "town_village_name": "Taranagar" }, "geometry": { "type": "Point", "coordinates": [ 75.035442, 28.6694444 ] } },
{ "type": "Feature", "properties": { "unit_name": "Anoopgarh", "unit_type": "Nagar Palika", "gmap_link": "https://www.google.com/maps/place/?q=place_id:ChIJxV_CJ2zkPTkRwMjHffxL9FM", "town_village_name": "1 MSR  (Rural)" }, "geometry": { "type": "Point", "coordinates": [ 73.1998604, 29.1811533 ] } },
{ "type": "Feature", "properties": { "unit_name": "Gajsinghpur", "unit_type": "Nagar Palika", "gmap_link": "https://www.google.com/maps/place/?q=place_id:ChIJK_dTx9-HPTkRcn__tIC-2ec", "town_village_name": "Gajsinghpur" }, "geometry": { "type": "Point", "coordinates": [ 73.4386466, 29.6598368 ] } },
{ "type": "Feature", "properties": { "unit_name": "Padampur", "unit_type": "Nagar Palika", "gmap_link": "https://www.google.com/maps/place/?q=place_id:ChIJc6-uR4YvFjkR-3m5EBeLeEc", "town_village_name": "24 BB  (Rural)" }, "geometry": { "type": "Point", "coordinates": [ 73.6256574, 29.707549 ] } },
{ "type": "Feature", "properties": { "unit_name": "Kesarisinghpur", "unit_type": "Nagar Palika", "gmap_link": "https://www.google.com/maps/place/?q=place_id:ChIJU_BRaibSFzkRAcf11ntkdNM", "town_village_name": "Kesrisinghpur" }, "geometry": { "type": "Point", "coordinates": [ 73.6212417, 29.9475208 ] } },
{ "type": "Feature", "properties": { "unit_name": "Sadulsahar", "unit_type": "Nagar Palika", "gmap_link": "https://www.google.com/maps/place/?q=place_id:ChIJuZbccyBVFjkRb9xzTdKPi4k", "town_village_name": "2 SDS" }, "geometry": { "type": "Point", "coordinates": [ 74.1739057, 29.9095791 ] } },
{ "type": "Feature", "properties": { "unit_name": "Shrikarnpur", "unit_type": "Nagar Palika", "gmap_link": "https://www.google.com/maps/place/?q=place_id:ChIJU7py2hyAPTkRzcX0g2w6EnA", "town_village_name": "Karanpur" }, "geometry": { "type": "Point", "coordinates": [ 73.4555875, 29.8413357 ] } },
{ "type": "Feature", "properties": { "unit_name": "Suratgarh", "unit_type": "Nagar Palika", "gmap_link": "https://www.google.com/maps/place/?q=place_id:ChIJj3eCVkVyFjkRlbyKXYVQpOc", "town_village_name": "Suratgarh" }, "geometry": { "type": "Point", "coordinates": [ 73.9009228, 29.32186 ] } },
{ "type": "Feature", "properties": { "unit_name": "Shrivijaynagar", "unit_type": "Nagar Palika", "gmap_link": "https://www.google.com/maps/place/?q=place_id:ChIJs5DrqbcDFjkRJDMc5O5LVaM", "town_village_name": "32 GB" }, "geometry": { "type": "Point", "coordinates": [ 73.5270189, 29.236905 ] } },
{ "type": "Feature", "properties": { "unit_name": "Nohar", "unit_type": "Nagar Palika", "gmap_link": "https://www.google.com/maps/place/?q=place_id:ChIJ9ddwR-4DFDkR2k5OjjV8m6c", "town_village_name": "26 NTR" }, "geometry": { "type": "Point", "coordinates": [ 74.8269376, 29.2484802 ] } },
{ "type": "Feature", "properties": { "unit_name": "Sangariya", "unit_type": "Nagar Palika", "gmap_link": "https://www.google.com/maps/place/?q=place_id:ChIJq3XHdYXlFjkRsZQGyIU6ygs", "town_village_name": "Sangaria" }, "geometry": { "type": "Point", "coordinates": [ 74.4630794, 29.7903276 ] } },
{ "type": "Feature", "properties": { "unit_name": "Bhadra", "unit_type": "Nagar Palika", "gmap_link": "https://www.google.com/maps/place/?q=place_id:ChIJ9YVqKc7vEzkRJ6UmuSY_CcM", "town_village_name": "Bhadra" }, "geometry": { "type": "Point", "coordinates": [ 75.165455, 29.1043148 ] } },
{ "type": "Feature", "properties": { "unit_name": "Pilibanga", "unit_type": "Nagar Palika", "gmap_link": "https://www.google.com/maps/place/?q=place_id:ChIJ0VQeAzqGFjkRi3HxmngZ6gM", "town_village_name": "24 NDR" }, "geometry": { "type": "Point", "coordinates": [ 74.2771389, 29.3831886 ] } },
{ "type": "Feature", "properties": { "unit_name": "Rawatsar", "unit_type": "Nagar Palika", "gmap_link": "https://www.google.com/maps/place/?q=place_id:ChIJO7KkfM2CFjkRKYvUhLTr-Ic", "town_village_name": "Rawatsar" }, "geometry": { "type": "Point", "coordinates": [ 74.4048831, 29.2565632 ] } },
{ "type": "Feature", "properties": { "unit_name": "Shriganganagar", "unit_type": "Nagar Parishad", "gmap_link": "https://www.google.com/maps/place/?q=place_id:ChIJFUCW1hO1FzkRmzGPO7hMSrU", "town_village_name": "3 E VILLAGE" }, "geometry": { "type": "Point", "coordinates": [ 73.879980500000016, 29.9093759 ] } },
{ "type": "Feature", "properties": { "unit_name": "Hanumangarh", "unit_type": "Nagar Parishad", "gmap_link": "https://www.google.com/maps/place/?q=place_id:ChIJw7A0hnnzFjkRsKF4zj-qvTo", "town_village_name": "45 NGC" }, "geometry": { "type": "Point", "coordinates": [ 74.3220873, 29.6243954 ] } },
{ "type": "Feature", "properties": { "unit_name": "Ajaysar", "unit_type": "Gram Panchayat", "gmap_link": "https://www.google.com/maps/place/?q=place_id:ChIJ3a62cAveazkROB9wn_qB5cI", "town_village_name": "Ajaysar" }, "geometry": { "type": "Point", "coordinates": [ 74.5756196, 26.4151215 ] } },
{ "type": "Feature", "properties": { "unit_name": "Aradka", "unit_type": "Gram Panchayat", "gmap_link": "https://www.google.com/maps/place/?q=place_id:ChIJpet1Ri7sazkRKkr3-H1bd9g", "town_village_name": "Aradka" }, "geometry": { "type": "Point", "coordinates": [ 74.7263913, 26.6315162 ] } },
{ "type": "Feature", "properties": { "unit_name": "Babayacha", "unit_type": "Gram Panchayat", "gmap_link": "https://www.google.com/maps/place/?q=place_id:ChIJ25uUUB3tazkRLhw4obhcYW8", "town_village_name": "Palri Pathanan" }, "geometry": { "type": "Point", "coordinates": [ 74.7395591, 26.6861415 ] } },
{ "type": "Feature", "properties": { "unit_name": "Banseli", "unit_type": "Gram Panchayat", "gmap_link": "https://www.google.com/maps/place/?q=place_id:ChIJHyn3d9HCazkRsNhemtRNJsM", "town_village_name": "Banseli" }, "geometry": { "type": "Point", "coordinates": [ 74.5521869, 26.5160587 ] } },
{ "type": "Feature", "properties": { "unit_name": "Barliya", "unit_type": "Gram Panchayat", "gmap_link": "https://www.google.com/maps/place/?q=place_id:ChIJaxA4UnTkazkRQyf3OE61ZMY", "town_village_name": "Badlya" }, "geometry": { "type": "Point", "coordinates": [ 74.7161489, 26.442008 ] } },
{ "type": "Feature", "properties": { "unit_name": "Beer", "unit_type": "Gram Panchayat", "gmap_link": "https://www.google.com/maps/place/?q=place_id:ChIJc6QWqVPiazkRjqeijKjEMmI", "town_village_name": "Beer" }, "geometry": { "type": "Point", "coordinates": [ 74.7278544, 26.397241 ] } },
{ "type": "Feature", "properties": { "unit_name": "Bhanwta", "unit_type": "Gram Panchayat", "gmap_link": "https://www.google.com/maps/place/?q=place_id:ChIJa1fgYtreazkRkB1OQBTCbs8", "town_village_name": "Bhanwta" }, "geometry": { "type": "Point", "coordinates": [ 74.5170319, 26.3741577 ] } },
{ "type": "Feature", "properties": { "unit_name": "Bhoodol", "unit_type": "Gram Panchayat", "gmap_link": "https://www.google.com/maps/place/?q=place_id:ChIJBXGWKRnlazkRhjartlR5mI0", "town_village_name": "Godiyawas" }, "geometry": { "type": "Point", "coordinates": [ 74.7556518, 26.4909049 ] } },
{ "type": "Feature", "properties": { "unit_name": "Bubani", "unit_type": "Gram Panchayat", "gmap_link": "https://www.google.com/maps/place/?q=place_id:ChIJk11Ej7D6azkRYY9TBqiNP7c", "town_village_name": "Bubani" }, "geometry": { "type": "Point", "coordinates": [ 74.7980705, 26.5199702 ] } },
{ "type": "Feature", "properties": { "unit_name": "Chachiyawas", "unit_type": "Gram Panchayat", "gmap_link": "https://www.google.com/maps/place/?q=place_id:ChIJa3XaGeToazkRhCPbVY95fTE", "town_village_name": "Chachiyawas" }, "geometry": { "type": "Point", "coordinates": [ 74.6744413, 26.5704784 ] } },
{ "type": "Feature", "properties": { "unit_name": "Danta", "unit_type": "Gram Panchayat", "gmap_link": "https://www.google.com/maps/place/?q=place_id:ChIJGTrj2kbiazkR_WQOh7JJri4", "town_village_name": "Danta" }, "geometry": { "type": "Point", "coordinates": [ 74.704442500000013, 26.3716706 ] } },
{ "type": "Feature", "properties": { "unit_name": "Daurai", "unit_type": "Gram Panchayat", "gmap_link": "https://www.google.com/maps/place/?q=place_id:ChIJs3c9iezgazkRlcVEFnUVD5o", "town_village_name": "Daurai  (Rural)" }, "geometry": { "type": "Point", "coordinates": [ 74.6196925, 26.3963119 ] } },
{ "type": "Feature", "properties": { "unit_name": "Doomara", "unit_type": "Gram Panchayat", "gmap_link": "https://www.google.com/maps/place/?q=place_id:ChIJ8UloBDHeazkR0uP02qbk6aU", "town_village_name": "Doomara" }, "geometry": { "type": "Point", "coordinates": [ 74.5756196, 26.3806045 ] } },
{ "type": "Feature", "properties": { "unit_name": "Gagwana", "unit_type": "Gram Panchayat", "gmap_link": "https://www.google.com/maps/place/?q=place_id:ChIJSTkiln3vazkR010QcWubabo", "town_village_name": "Gagwana" }, "geometry": { "type": "Point", "coordinates": [ 74.7256597, 26.5315059 ] } },
{ "type": "Feature", "properties": { "unit_name": "Ganahera", "unit_type": "Gram Panchayat", "gmap_link": "https://www.google.com/maps/place/?q=place_id:ChIJZREA9xjdazkReWczsxvAQn8", "town_village_name": "Pushkar" }, "geometry": { "type": "Point", "coordinates": [ 74.5514546, 26.4850718 ] } },
{ "type": "Feature", "properties": { "unit_name": "Gegal", "unit_type": "Gram Panchayat", "gmap_link": "https://www.google.com/maps/place/?q=place_id:ChIJRUce9OjvazkRD-2t2a7DZFI", "town_village_name": "Gegal" }, "geometry": { "type": "Point", "coordinates": [ 74.7662575, 26.5549877 ] } },
{ "type": "Feature", "properties": { "unit_name": "Ghooghra", "unit_type": "Gram Panchayat", "gmap_link": "https://www.google.com/maps/place/?q=place_id:ChIJnxrPNeHlazkRSyNzdO4iw7w", "town_village_name": "Ghooghra" }, "geometry": { "type": "Point", "coordinates": [ 74.6825709, 26.5090012 ] } },
{ "type": "Feature", "properties": { "unit_name": "Godiyawas", "unit_type": "Gram Panchayat", "gmap_link": "https://www.google.com/maps/place/?q=place_id:ChIJadyLn9jkazkRQZI19qFSJFM", "town_village_name": "Godiyawas" }, "geometry": { "type": "Point", "coordinates": [ 74.7658918, 26.4848256 ] } },
{ "type": "Feature", "properties": { "unit_name": "Hathi Khera", "unit_type": "Gram Panchayat", "gmap_link": "https://www.google.com/maps/place/?q=place_id:ChIJ5SoGn5rdazkRVkx5dsYicP4", "town_village_name": "Hathi Khera" }, "geometry": { "type": "Point", "coordinates": [ 74.5756196, 26.4496338 ] } },
{ "type": "Feature", "properties": { "unit_name": "Hatoondi", "unit_type": "Gram Panchayat", "gmap_link": "https://www.google.com/maps/place/?q=place_id:ChIJo-zNCsnhazkRrNAR1sgtglY", "town_village_name": "Hatoondi" }, "geometry": { "type": "Point", "coordinates": [ 74.6458987, 26.3537764 ] } },
{ "type": "Feature", "properties": { "unit_name": "Kadel", "unit_type": "Gram Panchayat", "gmap_link": "https://www.google.com/maps/place/?q=place_id:ChIJJRk0WGrCazkRjB11jn9NL1M", "town_village_name": "Kadel" }, "geometry": { "type": "Point", "coordinates": [ 74.5756196, 26.5761369 ] } },
{ "type": "Feature", "properties": { "unit_name": "Kanas.", "unit_type": "Gram Panchayat", "gmap_link": "https://www.google.com/maps/place/?q=place_id:ChIJ7dabIqbCazkRZSlICTi2PLE", "town_village_name": "Ajmer" }, "geometry": { "type": "Point", "coordinates": [ 74.5895313, 26.5266453 ] } },
{ "type": "Feature", "properties": { "unit_name": "Kayad", "unit_type": "Gram Panchayat", "gmap_link": "https://www.google.com/maps/place/?q=place_id:ChIJbaTd21LvazkRMymXz35fQ0w", "town_village_name": "Kayar" }, "geometry": { "type": "Point", "coordinates": [ 74.6876132, 26.5345382 ] } },
{ "type": "Feature", "properties": { "unit_name": "Kayampura", "unit_type": "Gram Panchayat", "gmap_link": "https://www.google.com/maps/place/?q=place_id:ChIJiwH4T_ruazkRM-xzcTEptVM", "town_village_name": "Oontra" }, "geometry": { "type": "Point", "coordinates": [ 74.7249281, 26.5839125 ] } },
{ "type": "Feature", "properties": { "unit_name": "Khori", "unit_type": "Gram Panchayat", "gmap_link": "https://www.google.com/maps/place/?q=place_id:ChIJO4lwNtfpazkRKmP0ZIXBOV8", "town_village_name": "Khori" }, "geometry": { "type": "Point", "coordinates": [ 74.5990492, 26.567223 ] } },
{ "type": "Feature", "properties": { "unit_name": "Makarwali", "unit_type": "Gram Panchayat", "gmap_link": "https://www.google.com/maps/place/?q=place_id:ChIJeUi5AM_nazkRYOo76Pyw7ck", "town_village_name": "Ajmer" }, "geometry": { "type": "Point", "coordinates": [ 74.630341, 26.5040323 ] } },
{ "type": "Feature", "properties": { "unit_name": "Mayapur", "unit_type": "Gram Panchayat", "gmap_link": "https://www.google.com/maps/place/?q=place_id:ChIJ0bopv4nxazkR82R47SMT2r8", "town_village_name": "Ramner Dhani" }, "geometry": { "type": "Point", "coordinates": [ 74.8119639, 26.6286307 ] } },
{ "type": "Feature", "properties": { "unit_name": "Nand", "unit_type": "Gram Panchayat", "gmap_link": "https://www.google.com/maps/place/?q=place_id:ChIJV3rTgxbbazkRxx8AsjiiCX8", "town_village_name": "Nand" }, "geometry": { "type": "Point", "coordinates": [ 74.4701475, 26.4724859 ] } },
{ "type": "Feature", "properties": { "unit_name": "Nareli", "unit_type": "Gram Panchayat", "gmap_link": "https://www.google.com/maps/place/?q=place_id:ChIJTZHW2kjkazkRUZDRa2Tr878", "town_village_name": "Nareli" }, "geometry": { "type": "Point", "coordinates": [ 74.7161489, 26.4765327 ] } },
{ "type": "Feature", "properties": { "unit_name": "Narwar", "unit_type": "Gram Panchayat", "gmap_link": "https://www.google.com/maps/place/?q=place_id:ChIJkQ6Uh1XpazkRcSDsqO2Zbuc", "town_village_name": "Narwar" }, "geometry": { "type": "Point", "coordinates": [ 74.6914746, 26.5955367 ] } },
{ "type": "Feature", "properties": { "unit_name": "Oontra", "unit_type": "Gram Panchayat", "gmap_link": "https://www.google.com/maps/place/?q=place_id:ChIJ54zhxDXuazkRUpHJRJuf5cQ", "town_village_name": "Jatli" }, "geometry": { "type": "Point", "coordinates": [ 74.7629661, 26.5851887 ] } },
{ "type": "Feature", "properties": { "unit_name": "Palra", "unit_type": "Gram Panchayat", "gmap_link": "https://www.google.com/maps/place/?q=place_id:ChIJpwhEqA_FbjkR7DMX3VZQVk8", "town_village_name": "Para" }, "geometry": { "type": "Point", "coordinates": [ 75.1888281, 25.8775669 ] } },
{ "type": "Feature", "properties": { "unit_name": "Ramner Dhani", "unit_type": "Gram Panchayat", "gmap_link": "https://www.google.com/maps/place/?q=place_id:ChIJCexLt5rxazkRK3LIHny-Rxk", "town_village_name": "Ramner Dhani" }, "geometry": { "type": "Point", "coordinates": [ 74.8097703, 26.6247972 ] } },
{ "type": "Feature", "properties": { "unit_name": "Rasoolpura", "unit_type": "Gram Panchayat", "gmap_link": "https://www.google.com/maps/place/?q=place_id:ChIJ--FQkdHlazkRuqDqGqcxID4", "town_village_name": "Rasoolpura" }, "geometry": { "type": "Point", "coordinates": [ 74.6956622, 26.48868 ] } },
{ "type": "Feature", "properties": { "unit_name": "Saradhana", "unit_type": "Gram Panchayat", "gmap_link": "https://www.google.com/maps/place/?q=place_id:ChIJ4V-Sre3fazkRlr-LiqH-XDI", "town_village_name": "Saradhana" }, "geometry": { "type": "Point", "coordinates": [ 74.5741552, 26.3416064 ] } },
{ "type": "Feature", "properties": { "unit_name": "Sarana", "unit_type": "Gram Panchayat", "gmap_link": "https://www.google.com/maps/place/?q=place_id:ChIJly_eLPJNaTkRT_TbF2cFPHE", "town_village_name": "Sarana" }, "geometry": { "type": "Point", "coordinates": [ 74.885798900000012, 26.1665938 ] } },
{ "type": "Feature", "properties": { "unit_name": "Sedariya", "unit_type": "Gram Panchayat", "gmap_link": "https://www.google.com/maps/place/?q=place_id:ChIJBzzoBVnhazkRRrbDjZOnfn8", "town_village_name": "Sedariya" }, "geometry": { "type": "Point", "coordinates": [ 74.6810274, 26.4151602 ] } },
{ "type": "Feature", "properties": { "unit_name": "Somalpur", "unit_type": "Gram Panchayat", "gmap_link": "https://www.google.com/maps/place/?q=place_id:ChIJNd2RjaTgazkRS2fjgcgsLKU", "town_village_name": "Ajmer" }, "geometry": { "type": "Point", "coordinates": [ 74.608254, 26.416662 ] } },
{ "type": "Feature", "properties": { "unit_name": "Tabeeji", "unit_type": "Gram Panchayat", "gmap_link": "https://www.google.com/maps/place/?q=place_id:ChIJOyEbhmzgazkRbxdRl3VRXXQ", "town_village_name": "Tabeeji  (Rural)" }, "geometry": { "type": "Point", "coordinates": [ 74.613691, 26.3588868 ] } },
{ "type": "Feature", "properties": { "unit_name": "Tilora", "unit_type": "Gram Panchayat", "gmap_link": "https://www.google.com/maps/place/?q=place_id:ChIJxQepyj3DazkRp3W4JExxPBE", "town_village_name": "Tilora" }, "geometry": { "type": "Point", "coordinates": [ 74.5313145, 26.5270478 ] } },
{ "type": "Feature", "properties": { "unit_name": "Aakodiya", "unit_type": "Gram Panchayat", "gmap_link": "https://www.google.com/maps/place/?q=place_id:ChIJXSBFyVyqbjkRF_xwxTj2tsk", "town_village_name": "Ankauriya" }, "geometry": { "type": "Point", "coordinates": [ 75.0257016, 26.3504489 ] } },
{ "type": "Feature", "properties": { "unit_name": "Arain", "unit_type": "Gram Panchayat", "gmap_link": "https://www.google.com/maps/place/?q=place_id:ChIJ9btSL2kBbDkRvxY7hicOYx0", "town_village_name": "Arain" }, "geometry": { "type": "Point", "coordinates": [ 75.0392106, 26.4494722 ] } },
{ "type": "Feature", "properties": { "unit_name": "Barol", "unit_type": "Gram Panchayat", "gmap_link": "https://www.google.com/maps/place/?q=place_id:ChIJqaaYR9qsbjkRDPktUtiRdS4", "town_village_name": "Barol" }, "geometry": { "type": "Point", "coordinates": [ 74.9851678, 26.2405953 ] } },
{ "type": "Feature", "properties": { "unit_name": "Bhagwantpura", "unit_type": "Gram Panchayat", "gmap_link": "https://www.google.com/maps/place/?q=place_id:ChIJh0QVklFSaTkRGowslrs1Tbs", "town_village_name": "Bhagwantpura" }, "geometry": { "type": "Point", "coordinates": [ 74.9121083, 26.2183968 ] } },
{ "type": "Feature", "properties": { "unit_name": "Bhamolav", "unit_type": "Gram Panchayat", "gmap_link": "https://www.google.com/maps/place/?q=place_id:ChIJo2e91SEDbDkRIO7OLjRqRZU", "town_village_name": "Bhambholao" }, "geometry": { "type": "Point", "coordinates": [ 75.1319171, 26.4384325 ] } },
{ "type": "Feature", "properties": { "unit_name": "Bhogadeet", "unit_type": "Gram Panchayat", "gmap_link": "https://www.google.com/maps/place/?q=place_id:ChIJ98g2qzYEbDkR0PCu2qyakdY", "town_village_name": "Bhogadeet" }, "geometry": { "type": "Point", "coordinates": [ 75.0786357, 26.5155917 ] } },
{ "type": "Feature", "properties": { "unit_name": "Borada", "unit_type": "Gram Panchayat", "gmap_link": "https://www.google.com/maps/place/?q=place_id:ChIJZ02VS_qtbjkR1ZjAsnlwLHA", "town_village_name": "Borada" }, "geometry": { "type": "Point", "coordinates": [ 75.0494329, 26.2070565 ] } },
{ "type": "Feature", "properties": { "unit_name": "Chhota Lamba", "unit_type": "Gram Panchayat", "gmap_link": "https://www.google.com/maps/place/?q=place_id:ChIJfXObK08AbDkRW7b8KfJ9NXU", "town_village_name": "Lamba" }, "geometry": { "type": "Point", "coordinates": [ 75.0048882, 26.4047679 ] } },
{ "type": "Feature", "properties": { "unit_name": "Dabrela", "unit_type": "Gram Panchayat", "gmap_link": "https://www.google.com/maps/place/?q=place_id:ChIJJdpNAHWtbjkRrEuMQwhEXcg", "town_village_name": "Dabrela" }, "geometry": { "type": "Point", "coordinates": [ 75.0085399, 26.2084895 ] } },
{ "type": "Feature", "properties": { "unit_name": "Dadiya", "unit_type": "Gram Panchayat", "gmap_link": "https://www.google.com/maps/place/?q=place_id:ChIJjbx63H0AbDkRO5w5E9amOSo", "town_village_name": "Dadiya" }, "geometry": { "type": "Point", "coordinates": [ 74.974211, 26.415892 ] } },
{ "type": "Feature", "properties": { "unit_name": "Deopuri", "unit_type": "Gram Panchayat", "gmap_link": "https://www.google.com/maps/place/?q=place_id:ChIJRV3vsLX4azkRERGkq1eRJTI", "town_village_name": "Deopuri" }, "geometry": { "type": "Point", "coordinates": [ 74.9457198, 26.4653922 ] } },
{ "type": "Feature", "properties": { "unit_name": "Dhasook", "unit_type": "Gram Panchayat", "gmap_link": "https://www.google.com/maps/place/?q=place_id:ChIJmc4QQa6pbjkR2i72pBd7Yp0", "town_village_name": "Dhasook" }, "geometry": { "type": "Point", "coordinates": [ 75.0961549, 26.3503614 ] } },
{ "type": "Feature", "properties": { "unit_name": "Gothiyana", "unit_type": "Gram Panchayat", "gmap_link": "https://www.google.com/maps/place/?q=place_id:ChIJn5B56EGrbjkRITN6qakEFY8", "town_village_name": "Gothiyana" }, "geometry": { "type": "Point", "coordinates": [ 74.9899155, 26.3005378 ] } },
{ "type": "Feature", "properties": { "unit_name": "Jheerota", "unit_type": "Gram Panchayat", "gmap_link": "https://www.google.com/maps/place/?q=place_id:ChIJXRkzOGWpbjkRu0xlrYeGzf4", "town_village_name": "Jheerota" }, "geometry": { "type": "Point", "coordinates": [ 75.0669552, 26.3184489 ] } },
{ "type": "Feature", "properties": { "unit_name": "Kakalwara", "unit_type": "Gram Panchayat", "gmap_link": "https://www.google.com/maps/place/?q=place_id:ChIJX8FhTwsCbDkROEz3sDqTyfM", "town_village_name": "Kakalwara" }, "geometry": { "type": "Point", "coordinates": [ 75.0903154, 26.3900859 ] } },
{ "type": "Feature", "properties": { "unit_name": "Kalanada", "unit_type": "Gram Panchayat", "gmap_link": "https://www.google.com/maps/place/?q=place_id:ChIJ71KDyfIGbDkRGurJUW6eXfc", "town_village_name": "Kalanada" }, "geometry": { "type": "Point", "coordinates": [ 75.0319086, 26.5106096 ] } },
{ "type": "Feature", "properties": { "unit_name": "Kasheer", "unit_type": "Gram Panchayat", "gmap_link": "https://www.google.com/maps/place/?q=place_id:ChIJ8SlgNBCsbjkR6EAHiv7AYZ4", "town_village_name": "Kasheer" }, "geometry": { "type": "Point", "coordinates": [ 75.0435916, 26.2813866 ] } },
{ "type": "Feature", "properties": { "unit_name": "Katsoora", "unit_type": "Gram Panchayat", "gmap_link": "https://www.google.com/maps/place/?q=place_id:ChIJWxkIUzYHbDkR8nSEDCdFnDQ", "town_village_name": "Katsoora" }, "geometry": { "type": "Point", "coordinates": [ 74.9968543, 26.4723096 ] } },
{ "type": "Feature", "properties": { "unit_name": "Mandawariya", "unit_type": "Gram Panchayat", "gmap_link": "https://www.google.com/maps/place/?q=place_id:ChIJK6BIYMD4azkRMNMppS1dnD0", "town_village_name": "Mandawariya" }, "geometry": { "type": "Point", "coordinates": [ 74.9062622, 26.6151213 ] } },
{ "type": "Feature", "properties": { "unit_name": "Manoharpura", "unit_type": "Gram Panchayat", "gmap_link": "https://www.google.com/maps/place/?q=place_id:ChIJJQJhKBewbjkRmDcQSveTwP4", "town_village_name": "Manoharpura" }, "geometry": { "type": "Point", "coordinates": [ 75.1370254, 26.1989931 ] } },
{ "type": "Feature", "properties": { "unit_name": "Sandoliya", "unit_type": "Gram Panchayat", "gmap_link": "https://www.google.com/maps/place/?q=place_id:ChIJW9VJA_QBbDkRtjRNr9Skyds", "town_village_name": "Sandoliya" }, "geometry": { "type": "Point", "coordinates": [ 75.0438089, 26.399934 ] } },
{ "type": "Feature", "properties": { "unit_name": "Siroonj", "unit_type": "Gram Panchayat", "gmap_link": "https://www.google.com/maps/place/?q=place_id:ChIJPyhZqHgDbDkRxhjIXd3FUic", "town_village_name": "Sinroj" }, "geometry": { "type": "Point", "coordinates": [ 75.109293, 26.4713263 ] } },
{ "type": "Feature", "properties": { "unit_name": "Bandanwara", "unit_type": "Gram Panchayat", "gmap_link": "https://www.google.com/maps/place/?q=place_id:ChIJozre_pxEaTkRt5uvwpWBgRI", "town_village_name": "Bandanwara" }, "geometry": { "type": "Point", "coordinates": [ 74.704442500000013, 26.1298069 ] } },
{ "type": "Feature", "properties": { "unit_name": "Barli", "unit_type": "Gram Panchayat", "gmap_link": "https://www.google.com/maps/place/?q=place_id:ChIJOW7qLMQ_aTkRuUZZs_meaC0", "town_village_name": "Bari" }, "geometry": { "type": "Point", "coordinates": [ 74.6107628, 25.9352698 ] } },
{ "type": "Feature", "properties": { "unit_name": "Bhinay", "unit_type": "Gram Panchayat", "gmap_link": "https://www.google.com/maps/place/?q=place_id:ChIJSeJxi19IaTkRfrCfQ_uc0mI", "town_village_name": "Bhinay" }, "geometry": { "type": "Point", "coordinates": [ 74.7689368, 26.051711 ] } },
{ "type": "Feature", "properties": { "unit_name": "Boobkiya", "unit_type": "Gram Panchayat", "gmap_link": "https://www.google.com/maps/place/?q=place_id:ChIJLYJBWdhIaTkRRyg5jPN_Bbg", "town_village_name": "Boobkiya" }, "geometry": { "type": "Point", "coordinates": [ 74.8214693, 26.0617144 ] } },
{ "type": "Feature", "properties": { "unit_name": "Chapaneri", "unit_type": "Gram Panchayat", "gmap_link": "https://www.google.com/maps/place/?q=place_id:ChIJteHjB0A2aTkRYsLns56ccZQ", "town_village_name": "Chapaneri" }, "geometry": { "type": "Point", "coordinates": [ 74.847789, 25.9693823 ] } },
{ "type": "Feature", "properties": { "unit_name": "Chhachhundra", "unit_type": "Gram Panchayat", "gmap_link": "https://www.google.com/maps/place/?q=place_id:ChIJ39JrlrFFaTkRBzyYWOBbF4Q", "town_village_name": "Chhachhundra" }, "geometry": { "type": "Point", "coordinates": [ 74.7395591, 26.099026 ] } },
{ "type": "Feature", "properties": { "unit_name": "Deoliya Kalan", "unit_type": "Gram Panchayat", "gmap_link": "https://www.google.com/maps/place/?q=place_id:ChIJQQm-k1s3aTkRnJ5ox8XoCoc", "town_village_name": "Deoliya Kalan" }, "geometry": { "type": "Point", "coordinates": [ 74.7857369, 25.9088813 ] } },
{ "type": "Feature", "properties": { "unit_name": "Devpura", "unit_type": "Gram Panchayat", "gmap_link": "https://www.google.com/maps/place/?q=place_id:ChIJV2refR5AaTkRfpE3vC2NJKA", "town_village_name": "Deopura  (Sathana)" }, "geometry": { "type": "Point", "coordinates": [ 74.5964867, 25.9801876 ] } },
{ "type": "Feature", "properties": { "unit_name": "Dhantol", "unit_type": "Gram Panchayat", "gmap_link": "https://www.google.com/maps/place/?q=place_id:ChIJNxUyNG5PaTkR8osKUcpMeRY", "town_village_name": "Dhantol" }, "geometry": { "type": "Point", "coordinates": [ 74.7980705, 26.1053205 ] } },
{ "type": "Feature", "properties": { "unit_name": "Ekalseenga", "unit_type": "Gram Panchayat", "gmap_link": "https://www.google.com/maps/place/?q=place_id:ChIJD4f3kHJHaTkRhK3WHOPQFsI", "town_village_name": "Ekalseenga" }, "geometry": { "type": "Point", "coordinates": [ 74.7161489, 25.9927593 ] } },
{ "type": "Feature", "properties": { "unit_name": "Gurha Khurd", "unit_type": "Gram Panchayat", "gmap_link": "https://www.google.com/maps/place/?q=place_id:ChIJGVsGXLY2aTkR-9vg-Zv-134", "town_village_name": "Gurha Khurd" }, "geometry": { "type": "Point", "coordinates": [ 74.8565613, 25.8924425 ] } },
{ "type": "Feature", "properties": { "unit_name": "Kanai Kalan", "unit_type": "Gram Panchayat", "gmap_link": "https://www.google.com/maps/place/?q=place_id:ChIJUwqboWk1aTkRaYqGxstwLuk", "town_village_name": "Kanai Kalan" }, "geometry": { "type": "Point", "coordinates": [ 74.9384135, 25.981899 ] } },
{ "type": "Feature", "properties": { "unit_name": "Kerot", "unit_type": "Gram Panchayat", "gmap_link": "https://www.google.com/maps/place/?q=place_id:ChIJfaABqUYzaTkRTPPxC4cW4NI", "town_village_name": "Kerot" }, "geometry": { "type": "Point", "coordinates": [ 74.9501034, 25.8908149 ] } },
{ "type": "Feature", "properties": { "unit_name": "Kumhariya", "unit_type": "Gram Panchayat", "gmap_link": "https://www.google.com/maps/place/?q=place_id:ChIJhegdXtxaaTkRvSXU8I4M_iI", "town_village_name": "Kumhariya" }, "geometry": { "type": "Point", "coordinates": [ 74.7454112, 26.1745623 ] } },
{ "type": "Feature", "properties": { "unit_name": "Lamgara", "unit_type": "Gram Panchayat", "gmap_link": "https://www.google.com/maps/place/?q=place_id:ChIJLbqQzpA3aTkRy3detGy_NJM", "town_village_name": "Lamgara" }, "geometry": { "type": "Point", "coordinates": [ 74.7980705, 25.9554231 ] } },
{ "type": "Feature", "properties": { "unit_name": "Nagola", "unit_type": "Gram Panchayat", "gmap_link": "https://www.google.com/maps/place/?q=place_id:ChIJ8YsmFvZJaTkRnxO0jYjsSBk", "town_village_name": "Nagola" }, "geometry": { "type": "Point", "coordinates": [ 74.8726426, 26.008077 ] } },
{ "type": "Feature", "properties": { "unit_name": "Nandsi", "unit_type": "Gram Panchayat", "gmap_link": "https://www.google.com/maps/place/?q=place_id:ChIJD6Q1hEA0aTkRyrDhqytvlIs", "town_village_name": "Nandsi" }, "geometry": { "type": "Point", "coordinates": [ 74.8989541, 25.930119 ] } },
{ "type": "Feature", "properties": { "unit_name": "Padaliya", "unit_type": "Gram Panchayat", "gmap_link": "https://www.google.com/maps/place/?q=place_id:ChIJrWcqI8DdbjkR0ReKZq9_I_A", "town_village_name": "Padaliya  (Sawar)" }, "geometry": { "type": "Point", "coordinates": [ 75.3149796, 25.7815298 ] } },
{ "type": "Feature", "properties": { "unit_name": "Padanga", "unit_type": "Gram Panchayat", "gmap_link": "https://www.google.com/maps/place/?q=place_id:ChIJZRufOMBDaTkRNyLmL6y5qB8", "town_village_name": "Padanga" }, "geometry": { "type": "Point", "coordinates": [ 74.6576091, 26.0901692 ] } },
{ "type": "Feature", "properties": { "unit_name": "Rammaliya", "unit_type": "Gram Panchayat", "gmap_link": "https://www.google.com/maps/place/?q=place_id:ChIJgdxD92hPaTkRjERmCtGjr4o", "town_village_name": "Rammaliya" }, "geometry": { "type": "Point", "coordinates": [ 74.8347208, 26.1022433 ] } },
{ "type": "Feature", "properties": { "unit_name": "Ratakot", "unit_type": "Gram Panchayat", "gmap_link": "https://www.google.com/maps/place/?q=place_id:ChIJTU3HOYRBaTkRAqRuce6wFpU", "town_village_name": "Ratakot" }, "geometry": { "type": "Point", "coordinates": [ 74.6283316, 26.0466647 ] } },
{ "type": "Feature", "properties": { "unit_name": "Singawal", "unit_type": "Gram Panchayat", "gmap_link": "https://www.google.com/maps/place/?q=place_id:ChIJ5fQHCDVBaTkRoBkVbj4l_Ig", "town_village_name": "Singhawal" }, "geometry": { "type": "Point", "coordinates": [ 74.6810274, 26.0350817 ] } },
{ "type": "Feature", "properties": { "unit_name": "Sobdi", "unit_type": "Gram Panchayat", "gmap_link": "https://www.google.com/maps/place/?q=place_id:ChIJTwxAbohIaTkRZnlmbZMN5MU", "town_village_name": "Kumhariya Khera" }, "geometry": { "type": "Point", "coordinates": [ 74.7980705, 26.0246168 ] } },
{ "type": "Feature", "properties": { "unit_name": "Asan", "unit_type": "Gram Panchayat", "gmap_link": "https://www.google.com/maps/place/?q=place_id:ChIJTatloBK7aTkRzuUJWYWvUEk", "town_village_name": "Asan (Khera Kalan)" }, "geometry": { "type": "Point", "coordinates": [ 73.9962255, 25.7796624 ] } },
{ "type": "Feature", "properties": { "unit_name": "Ateetmand", "unit_type": "Gram Panchayat", "gmap_link": "https://www.google.com/maps/place/?q=place_id:ChIJ1QcNbvtzaTkRc0oixcIDRmc", "town_village_name": "Ateetmand" }, "geometry": { "type": "Point", "coordinates": [ 74.3206208, 26.0215908 ] } },
{ "type": "Feature", "properties": { "unit_name": "Bada Khera (Khera Kalan)", "unit_type": "Gram Panchayat", "gmap_link": "https://www.google.com/maps/place/?q=place_id:ChIJBdYt1a2kaTkRk4P6GMio7Jk", "town_village_name": "Khera Kalan" }, "geometry": { "type": "Point", "coordinates": [ 74.0358876, 25.8028165 ] } },
{ "type": "Feature", "properties": { "unit_name": "Badiya Bhau", "unit_type": "Gram Panchayat", "gmap_link": "https://www.google.com/maps/place/?q=place_id:ChIJg1bP_ZqfaTkRtARmaTIQ5zg", "town_village_name": "Badiya Bhau  (Jawaja)" }, "geometry": { "type": "Point", "coordinates": [ 74.1812442, 25.92985 ] } },
{ "type": "Feature", "properties": { "unit_name": "Bamanhera", "unit_type": "Gram Panchayat", "gmap_link": "https://www.google.com/maps/place/?q=place_id:ChIJ2a9bXa28aTkRG_wRvHfJYCA", "town_village_name": "Bamanhera" }, "geometry": { "type": "Point", "coordinates": [ 74.0270745, 25.8219697 ] } },
{ "type": "Feature", "properties": { "unit_name": "Banjari", "unit_type": "Gram Panchayat", "gmap_link": "https://www.google.com/maps/place/?q=place_id:ChIJMcugK9KkaTkRxcpSz0VBiRQ", "town_village_name": "Banjari" }, "geometry": { "type": "Point", "coordinates": [ 74.0329499, 25.7708328 ] } },
{ "type": "Feature", "properties": { "unit_name": "Bar Kochara", "unit_type": "Gram Panchayat", "gmap_link": "https://www.google.com/maps/place/?q=place_id:ChIJlX_87e0KaTkRNWm0HPR_ioc", "town_village_name": "Bar Kochara" }, "geometry": { "type": "Point", "coordinates": [ 74.2443436, 25.8922499 ] } },
{ "type": "Feature", "properties": { "unit_name": "Barakhan", "unit_type": "Gram Panchayat", "gmap_link": "https://www.google.com/maps/place/?q=place_id:ChIJq-9_nx67aTkR-WZLkXWnCYg", "town_village_name": "Barakhan" }, "geometry": { "type": "Point", "coordinates": [ 73.9991637, 25.7627275 ] } },
{ "type": "Feature", "properties": { "unit_name": "Beawar Khas", "unit_type": "Gram Panchayat", "gmap_link": "https://www.google.com/maps/place/?q=place_id:ChIJHc7zETV6aTkRt7EHfq9z-A8", "town_village_name": "Beawar Khas" }, "geometry": { "type": "Point", "coordinates": [ 74.3294199, 26.1578049 ] } },
{ "type": "Feature", "properties": { "unit_name": "Bhairoo Khera", "unit_type": "Gram Panchayat", "gmap_link": "https://www.google.com/maps/place/?q=place_id:ChIJY2MgYk9baTkRbRUAgcFKihI", "town_village_name": "Bhairoo Khera" }, "geometry": { "type": "Point", "coordinates": [ 74.7015158, 26.1669362 ] } },
{ "type": "Feature", "properties": { "unit_name": "Delwara", "unit_type": "Gram Panchayat", "gmap_link": "https://www.google.com/maps/place/?q=place_id:ChIJ-WMgOO16aTkRmrTnV84WE0I", "town_village_name": "Theekrana Goojran" }, "geometry": { "type": "Point", "coordinates": [ 74.3719431, 26.1466943 ] } },
{ "type": "Feature", "properties": { "unit_name": "Dewata", "unit_type": "Gram Panchayat", "gmap_link": "https://www.google.com/maps/place/?q=place_id:ChIJ9zfWYmt1aTkRVwo_mS1KkF0", "town_village_name": "Malpura  (Deota)" }, "geometry": { "type": "Point", "coordinates": [ 74.239942, 25.9507684 ] } },
{ "type": "Feature", "properties": { "unit_name": "Durgawas", "unit_type": "Gram Panchayat", "gmap_link": "https://www.google.com/maps/place/?q=place_id:ChIJb5R87E12aTkRSJL6_sNyX9M", "town_village_name": "Khera Devnarayan" }, "geometry": { "type": "Point", "coordinates": [ 74.2502122, 26.0540636 ] } },
{ "type": "Feature", "properties": { "unit_name": "Fatehgarh Salla", "unit_type": "Gram Panchayat", "gmap_link": "https://www.google.com/maps/place/?q=place_id:ChIJiRuHd5J5aTkRU6QsxMXtNkI", "town_village_name": "Relmal Kalan" }, "geometry": { "type": "Point", "coordinates": [ 74.2993544, 26.1408006 ] } },
{ "type": "Feature", "properties": { "unit_name": "Ganeshpura", "unit_type": "Gram Panchayat", "gmap_link": "https://www.google.com/maps/place/?q=place_id:ChIJac7qriBNaTkRgoRdFkk6cqI", "town_village_name": "Ganeshpura" }, "geometry": { "type": "Point", "coordinates": [ 74.9939327, 26.1290976 ] } },
{ "type": "Feature", "properties": { "unit_name": "Gohana", "unit_type": "Gram Panchayat", "gmap_link": "https://www.google.com/maps/place/?q=place_id:ChIJ_Sx3jad2aTkR06xBG5Zh-YI", "town_village_name": "Gohana" }, "geometry": { "type": "Point", "coordinates": [ 74.2942208, 26.0273004 ] } },
{ "type": "Feature", "properties": { "unit_name": "Jaliya-I", "unit_type": "Gram Panchayat", "gmap_link": "https://www.google.com/maps/place/?q=place_id:ChIJEXIFLR13aTkRzQhQzBlioE4", "town_village_name": "Jaliya-I" }, "geometry": { "type": "Point", "coordinates": [ 74.278085500000017, 26.0701103 ] } },
{ "type": "Feature", "properties": { "unit_name": "Jawaja", "unit_type": "Gram Panchayat", "gmap_link": "https://www.google.com/maps/place/?q=place_id:ChIJSc5cg8afaTkRxvlIRVmDBnU", "town_village_name": "Chiliyabar" }, "geometry": { "type": "Point", "coordinates": [ 74.2047256, 25.93822 ] } },
{ "type": "Feature", "properties": { "unit_name": "Kabra", "unit_type": "Gram Panchayat", "gmap_link": "https://www.google.com/maps/place/?q=place_id:ChIJRZTTd4l1aTkRakVZQ1bwJAo", "town_village_name": "Biyan Khera" }, "geometry": { "type": "Point", "coordinates": [ 74.2208673, 25.9817427 ] } },
{ "type": "Feature", "properties": { "unit_name": "Kishanpura", "unit_type": "Gram Panchayat", "gmap_link": "https://www.google.com/maps/place/?q=place_id:ChIJu_GOJsrgazkRLnqUFg_nXA0", "town_village_name": "Ajmer" }, "geometry": { "type": "Point", "coordinates": [ 74.6173513, 26.4204219 ] } },
{ "type": "Feature", "properties": { "unit_name": "Kotra", "unit_type": "Gram Panchayat", "gmap_link": "https://www.google.com/maps/place/?q=place_id:ChIJVUdP14DnazkRkfRBuIDsBAo", "town_village_name": "Ajmer" }, "geometry": { "type": "Point", "coordinates": [ 74.5946564, 26.4732959 ] } },
{ "type": "Feature", "properties": { "unit_name": "Lasadiya", "unit_type": "Gram Panchayat", "gmap_link": "https://www.google.com/maps/place/?q=place_id:ChIJh6FNTltwaTkRP9yqrAG8h6o", "town_village_name": "Lasadiya" }, "geometry": { "type": "Point", "coordinates": [ 74.3675446, 26.0958512 ] } },
{ "type": "Feature", "properties": { "unit_name": "Lotiyana", "unit_type": "Gram Panchayat", "gmap_link": "https://www.google.com/maps/place/?q=place_id:ChIJh93NFDygaTkR13-AzrXMcfo", "town_village_name": "Lotiyana" }, "geometry": { "type": "Point", "coordinates": [ 74.1915177, 25.903654 ] } },
{ "type": "Feature", "properties": { "unit_name": "Malaton Ki Ber", "unit_type": "Gram Panchayat", "gmap_link": "https://www.google.com/maps/place/?q=place_id:ChIJg9xdsaewaTkRSF0sgknS5mc", "town_village_name": "Bujarel" }, "geometry": { "type": "Point", "coordinates": [ 73.9506774, 25.7040449 ] } },
{ "type": "Feature", "properties": { "unit_name": "Malpura", "unit_type": "Gram Panchayat", "gmap_link": "https://www.google.com/maps/place/?q=place_id:ChIJX7fysT9xaTkR66UMjA5o4aM", "town_village_name": "Malpura  (Kaliyawas)" }, "geometry": { "type": "Point", "coordinates": [ 74.3323529, 26.0516692 ] } },
{ "type": "Feature", "properties": { "unit_name": "Mediya", "unit_type": "Gram Panchayat", "gmap_link": "https://www.google.com/maps/place/?q=place_id:ChIJWZufhw56aTkRonjtktrlBTE", "town_village_name": "Mediya  (Naya Nagar)" }, "geometry": { "type": "Point", "coordinates": [ 74.3264869, 26.1258336 ] } },
{ "type": "Feature", "properties": { "unit_name": "Nai Kalan", "unit_type": "Gram Panchayat", "gmap_link": "https://www.google.com/maps/place/?q=place_id:ChIJJdhVO2ieaTkRTT6_iCBybas", "town_village_name": "Nai Kalan" }, "geometry": { "type": "Point", "coordinates": [ 74.1885825, 25.9925322 ] } },
{ "type": "Feature", "properties": { "unit_name": "Narbad Khera", "unit_type": "Gram Panchayat", "gmap_link": "https://www.google.com/maps/place/?q=place_id:ChIJJSB87L92aTkRgjQeQv7zbdo", "town_village_name": "Narbad Khera" }, "geometry": { "type": "Point", "coordinates": [ 74.2854199, 26.0407125 ] } },
{ "type": "Feature", "properties": { "unit_name": "Noondri Mahindratan", "unit_type": "Gram Panchayat", "gmap_link": "https://www.google.com/maps/place/?q=place_id:ChIJXYVpcP15aTkROffhIbtpIWo", "town_village_name": "Noondri Medratan" }, "geometry": { "type": "Point", "coordinates": [ 74.3015545, 26.1158735 ] } },
{ "type": "Feature", "properties": { "unit_name": "Rajiyawas", "unit_type": "Gram Panchayat", "gmap_link": "https://www.google.com/maps/place/?q=place_id:ChIJLwKRcCV0aTkRTztCwiedeIE", "town_village_name": "Rajiyawas" }, "geometry": { "type": "Point", "coordinates": [ 74.2795524, 26.0112846 ] } },
{ "type": "Feature", "properties": { "unit_name": "Rawatmala", "unit_type": "Gram Panchayat", "gmap_link": "https://www.google.com/maps/place/?q=place_id:ChIJe6eLg9ShaTkRR9PvzMlyaas", "town_village_name": "Rawatmal" }, "geometry": { "type": "Point", "coordinates": [ 74.1739057, 25.9074491 ] } },
{ "type": "Feature", "properties": { "unit_name": "Roopnagar", "unit_type": "Gram Panchayat", "gmap_link": "https://www.google.com/maps/place/?q=place_id:ChIJQQPe5J95aTkRscN41EWnxFc", "town_village_name": "Roopnagar" }, "geometry": { "type": "Point", "coordinates": [ 74.2912773, 26.1608725 ] } },
{ "type": "Feature", "properties": { "unit_name": "Sarmaliya", "unit_type": "Gram Panchayat", "gmap_link": "https://www.google.com/maps/place/?q=place_id:ChIJs6wSCyFxaTkRwEll9czwziU", "town_village_name": "Beawar" }, "geometry": { "type": "Point", "coordinates": [ 74.3316197, 26.0681354 ] } },
{ "type": "Feature", "properties": { "unit_name": "Sarveena", "unit_type": "Gram Panchayat", "gmap_link": "https://www.google.com/maps/place/?q=place_id:ChIJl9_iza91aTkRU0td8s55IGU", "town_village_name": "Sarveena" }, "geometry": { "type": "Point", "coordinates": [ 74.2546136, 25.9811772 ] } },
{ "type": "Feature", "properties": { "unit_name": "Satoo Khera", "unit_type": "Gram Panchayat", "gmap_link": "https://www.google.com/maps/place/?q=place_id:ChIJrcvX4ga7aTkRs3-V--zE-jM", "town_village_name": "Satoo Khera" }, "geometry": { "type": "Point", "coordinates": [ 73.9859414, 25.7655589 ] } },
{ "type": "Feature", "properties": { "unit_name": "Shahpura", "unit_type": "Gram Panchayat", "gmap_link": "https://www.google.com/maps/place/?q=place_id:ChIJe5ZrTFt0aTkRhvDgetUkJ68", "town_village_name": "Shahpura  (Kalinjar)" }, "geometry": { "type": "Point", "coordinates": [ 74.2854199, 25.9831552 ] } },
{ "type": "Feature", "properties": { "unit_name": "Suhawa", "unit_type": "Gram Panchayat", "gmap_link": "https://www.google.com/maps/place/?q=place_id:ChIJF4aBjQhwaTkREdJbNtFEfwo", "town_village_name": "Suhawa" }, "geometry": { "type": "Point", "coordinates": [ 74.3910019, 26.1214649 ] } },
{ "type": "Feature", "properties": { "unit_name": "Suradiya", "unit_type": "Gram Panchayat", "gmap_link": "https://www.google.com/maps/place/?q=place_id:ChIJG8O3Hvd0aTkR1rAfjaVf-Kc", "town_village_name": "Suradiya" }, "geometry": { "type": "Point", "coordinates": [ 74.2707509, 25.9671384 ] } },
{ "type": "Feature", "properties": { "unit_name": "Surajpura", "unit_type": "Gram Panchayat", "gmap_link": "https://www.google.com/maps/place/?q=place_id:ChIJQ1Rvsk5saTkRE9LtQWC_8bc", "town_village_name": "Daulatpura-II" }, "geometry": { "type": "Point", "coordinates": [ 74.4613553, 26.0082998 ] } },
{ "type": "Feature", "properties": { "unit_name": "Taragarh", "unit_type": "Gram Panchayat", "gmap_link": "https://www.google.com/maps/place/?q=place_id:ChIJy5hnszjnazkRUlWCfiBqdAc", "town_village_name": "Ajmer" }, "geometry": { "type": "Point", "coordinates": [ 74.6173513, 26.4419951 ] } },
{ "type": "Feature", "properties": { "unit_name": "Ajgara", "unit_type": "Gram Panchayat", "gmap_link": "https://www.google.com/maps/place/?q=place_id:ChIJJzmn7dfJbjkRZyBtuOOoP44", "town_village_name": "Ajgara" }, "geometry": { "type": "Point", "coordinates": [ 75.0976147, 26.0145524 ] } },
{ "type": "Feature", "properties": { "unit_name": "Baghera", "unit_type": "Gram Panchayat", "gmap_link": "https://www.google.com/maps/place/?q=place_id:ChIJPQ6dvynAbjkRl49RDuFUdVY", "town_village_name": "Baghera" }, "geometry": { "type": "Point", "coordinates": [ 75.3164374, 26.0200116 ] } },
{ "type": "Feature", "properties": { "unit_name": "Bharai", "unit_type": "Gram Panchayat", "gmap_link": "https://www.google.com/maps/place/?q=place_id:ChIJV5QrSQDPbjkRIYdkqQUKaVs", "town_village_name": "Pranhera" }, "geometry": { "type": "Point", "coordinates": [ 75.1096579, 25.8826777 ] } },
{ "type": "Feature", "properties": { "unit_name": "Bheemrawas", "unit_type": "Gram Panchayat", "gmap_link": "https://www.google.com/maps/place/?q=place_id:ChIJkcYnoM3NbjkRqbpaosgCWGY", "town_village_name": "Bheemrawas" }, "geometry": { "type": "Point", "coordinates": [ 75.0435916, 25.8660206 ] } },
{ "type": "Feature", "properties": { "unit_name": "Deogaon", "unit_type": "Gram Panchayat", "gmap_link": "https://www.google.com/maps/place/?q=place_id:ChIJ0bDPUFm-bjkRFg0nnRstzLg", "town_village_name": "Deogaon" }, "geometry": { "type": "Point", "coordinates": [ 75.3004009, 26.1006351 ] } },
{ "type": "Feature", "properties": { "unit_name": "Jooniya", "unit_type": "Gram Panchayat", "gmap_link": "https://www.google.com/maps/place/?q=place_id:ChIJS7N_8vu4bjkRo4JiLJCMSzc", "town_village_name": "Kesarpura" }, "geometry": { "type": "Point", "coordinates": [ 75.2077938, 26.0671971 ] } },
{ "type": "Feature", "properties": { "unit_name": "Kadera", "unit_type": "Gram Panchayat", "gmap_link": "https://www.google.com/maps/place/?q=place_id:ChIJd1LkhhfSbjkR73zSLcatVYA", "town_village_name": "Kadera" }, "geometry": { "type": "Point", "coordinates": [ 75.056004, 25.8074142 ] } },
{ "type": "Feature", "properties": { "unit_name": "Kalera Krishna Gopal", "unit_type": "Gram Panchayat", "gmap_link": "https://www.google.com/maps/place/?q=place_id:ChIJrUJonkTEbjkR_KwSLpGN0cM", "town_village_name": "Kalera Krishna Gopal" }, "geometry": { "type": "Point", "coordinates": [ 75.2165465, 25.9035467 ] } },
{ "type": "Feature", "properties": { "unit_name": "Kanoj", "unit_type": "Gram Panchayat", "gmap_link": "https://www.google.com/maps/place/?q=place_id:ChIJwS2PBTu_bjkRF5LiePhTRZs", "town_village_name": "Kanoj" }, "geometry": { "type": "Point", "coordinates": [ 75.2654063, 26.0623656 ] } },
{ "type": "Feature", "properties": { "unit_name": "Khawas", "unit_type": "Gram Panchayat", "gmap_link": "https://www.google.com/maps/place/?q=place_id:ChIJv23sbi_ObjkRnjqvRUH5hm0", "town_village_name": "Khawas" }, "geometry": { "type": "Point", "coordinates": [ 75.0972498, 25.8387942 ] } },
{ "type": "Feature", "properties": { "unit_name": "Lallai", "unit_type": "Gram Panchayat", "gmap_link": "https://www.google.com/maps/place/?q=place_id:ChIJRVY4Mky2bjkRjX4Ug-f5m9Q", "town_village_name": "Lallai" }, "geometry": { "type": "Point", "coordinates": [ 75.1019942, 26.0453097 ] } },
{ "type": "Feature", "properties": { "unit_name": "Mankhand", "unit_type": "Gram Panchayat", "gmap_link": "https://www.google.com/maps/place/?q=place_id:ChIJZUKcIdzAbjkR-tJYbLXqIQA", "town_village_name": "Mankhand" }, "geometry": { "type": "Point", "coordinates": [ 75.2654063, 25.993076 ] } },
{ "type": "Feature", "properties": { "unit_name": "Meoda Kalan", "unit_type": "Gram Panchayat", "gmap_link": "https://www.google.com/maps/place/?q=place_id:ChIJSR7YZj3HbjkR_0PpWFpWwV8", "town_village_name": "Meoda Kalan" }, "geometry": { "type": "Point", "coordinates": [ 75.2128996, 25.9934005 ] } },
{ "type": "Feature", "properties": { "unit_name": "Molkiya", "unit_type": "Gram Panchayat", "gmap_link": "https://www.google.com/maps/place/?q=place_id:ChIJnaBU_SvEbjkRL8arAlezwAw", "town_village_name": "Molkiya" }, "geometry": { "type": "Point", "coordinates": [ 75.2077938, 25.930072 ] } },
{ "type": "Feature", "properties": { "unit_name": "Naiki", "unit_type": "Gram Panchayat", "gmap_link": "https://www.google.com/maps/place/?q=place_id:ChIJFQF6A_XHbjkRvLiX-7G3HH8", "town_village_name": "Naiki" }, "geometry": { "type": "Point", "coordinates": [ 75.1764262, 26.0199111 ] } },
{ "type": "Feature", "properties": { "unit_name": "Nimod", "unit_type": "Gram Panchayat", "gmap_link": "https://www.google.com/maps/place/?q=place_id:ChIJmbMU9UTPbjkRuNP2x0SpMX8", "town_village_name": "Ugai" }, "geometry": { "type": "Point", "coordinates": [ 75.1401267, 25.912383 ] } },
{ "type": "Feature", "properties": { "unit_name": "Pranheda", "unit_type": "Gram Panchayat", "gmap_link": "https://www.google.com/maps/place/?q=place_id:ChIJrVQFaJfObjkRWRK-WXuwZnw", "town_village_name": "Pranhera" }, "geometry": { "type": "Point", "coordinates": [ 75.0735256, 25.8944162 ] } },
{ "type": "Feature", "properties": { "unit_name": "Rampali", "unit_type": "Gram Panchayat", "gmap_link": "https://www.google.com/maps/place/?q=place_id:ChIJX0v72A3JbjkRA7viH3ahNFA", "town_village_name": "Rampali" }, "geometry": { "type": "Point", "coordinates": [ 75.0873956, 25.9600919 ] } },
{ "type": "Feature", "properties": { "unit_name": "Salari", "unit_type": "Gram Panchayat", "gmap_link": "https://www.google.com/maps/place/?q=place_id:ChIJHd40fHTBbjkR3U-ZPM4OFjU", "town_village_name": "Salari" }, "geometry": { "type": "Point", "coordinates": [ 75.2887369, 25.9608373 ] } },
{ "type": "Feature", "properties": { "unit_name": "Sarsari", "unit_type": "Gram Panchayat", "gmap_link": "https://www.google.com/maps/place/?q=place_id:ChIJB5adkfnIbjkRht7r9LIPC0Y", "town_village_name": "Sarsari" }, "geometry": { "type": "Point", "coordinates": [ 75.1136721, 25.96573 ] } },
{ "type": "Feature", "properties": { "unit_name": "Amarpura", "unit_type": "Gram Panchayat", "gmap_link": "https://www.google.com/maps/place/?q=place_id:ChIJexaiRlhtaTkR2zXgBMvqY2s", "town_village_name": "Amarpura  (Akol)" }, "geometry": { "type": "Point", "coordinates": [ 74.4071271, 25.9548369 ] } },
{ "type": "Feature", "properties": { "unit_name": "Bandar Seendri", "unit_type": "Gram Panchayat", "gmap_link": "https://www.google.com/maps/place/?q=place_id:ChIJCznwn-gIbDkRRJMJ_BoY6uI", "town_village_name": "Bandar Seendri" }, "geometry": { "type": "Point", "coordinates": [ 75.0372876, 26.5981243 ] } },
{ "type": "Feature", "properties": { "unit_name": "Barna", "unit_type": "Gram Panchayat", "gmap_link": "https://www.google.com/maps/place/?q=place_id:ChIJN4zvNFL4azkR4JrOhPhUL9w", "town_village_name": "Barna" }, "geometry": { "type": "Point", "coordinates": [ 74.9252615, 26.5150117 ] } },
{ "type": "Feature", "properties": { "unit_name": "Bhadoon", "unit_type": "Gram Panchayat", "gmap_link": "https://www.google.com/maps/place/?q=place_id:ChIJU22OEbGJazkRo2nQr_Br5qU", "town_village_name": "Bhadoon" }, "geometry": { "type": "Point", "coordinates": [ 74.9380482, 26.864067 ] } },
{ "type": "Feature", "properties": { "unit_name": "Bhilawat", "unit_type": "Gram Panchayat", "gmap_link": "https://www.google.com/maps/place/?q=place_id:ChIJVRm9j5KFazkRQB71_gmZwnE", "town_village_name": "Bhilawat" }, "geometry": { "type": "Point", "coordinates": [ 74.8448648, 26.927547 ] } },
{ "type": "Feature", "properties": { "unit_name": "Buharoo", "unit_type": "Gram Panchayat", "gmap_link": "https://www.google.com/maps/place/?q=place_id:ChIJi8SOB5D1azkR4Xu76y9T6Rc", "town_village_name": "Buharoo" },